[{
    "iata": "VIE",
    "icao": "LOWW",
    "name": "Vienna International Airport",
    "city": "Vienna",
    "lat": "48.110271",
    "lon": "16.569719",
    "country": "AUSTRIA"
}, {
    "iata": "GYD",
    "icao": "UBBB",
    "name": "Baku Heydar Aliyev International Airport",
    "city": "Baku",
    "lat": "40.467499",
    "lon": "50.046661",
    "country": "AZERBAIJAN"
}, {
    "iata": "MSQ",
    "icao": "UMMS",
    "name": "Minsk National Airport",
    "city": "Minsk",
    "lat": "53.882462",
    "lon": "28.030729",
    "country": "BELARUS"
}, {
    "iata": "BRU",
    "icao": "EBBR",
    "name": "Brussels Airport",
    "city": "Brussels",
    "lat": "50.901379",
    "lon": "4.484444",
    "country": "BELGIUM"
}, {
    "iata": "SJJ",
    "icao": "LQSA",
    "name": "Sarajevo International Airport",
    "city": "Sarajevo",
    "lat": "43.824581",
    "lon": "18.331461",
    "country": "BOSNIA AND HERZEGOVINA"
}, {
    "iata": "SOF",
    "icao": "LBSF",
    "name": "Sofia Airport",
    "city": "Sofia",
    "lat": "42.695190",
    "lon": "23.406160",
    "country": "BULGARIA"
}, {
    "iata": "PRG",
    "icao": "LKPR",
    "name": "Prague Vaclav Havel Airport",
    "city": "Prague",
    "lat": "50.100830",
    "lon": "14.260000",
    "country": "CZECHIA"
}, {
    "iata": "CPH",
    "icao": "EKCH",
    "name": "Copenhagen Airport",
    "city": "Copenhagen",
    "lat": "55.616959",
    "lon": "12.645637",
    "country": "DENMARK"
}, {
    "iata": "SSH",
    "icao": "HESH",
    "name": "Sharm el-Sheikh International Airport",
    "city": "Sharm el-Sheikh",
    "lat": "27.977280",
    "lon": "34.394951",
    "country": "EGYPT"
}, {
    "iata": "BSL",
    "icao": "LFSB",
    "name": "Basel Mulhouse-Freiburg EuroAirport",
    "city": "Basel",
    "lat": "47.598900",
    "lon": "7.528300",
    "country": "FRANCE"
}, {
    "iata": "CDG",
    "icao": "LFPG",
    "name": "Paris Charles de Gaulle Airport",
    "city": "Paris",
    "lat": "49.012516",
    "lon": "2.555752",
    "country": "FRANCE"
}, {
    "iata": "ORY",
    "icao": "LFPO",
    "name": "Paris Orly Airport",
    "city": "Paris",
    "lat": "48.723331",
    "lon": "2.379444",
    "country": "FRANCE"
}, {
    "iata": "TBS",
    "icao": "UGTB",
    "name": "Tbilisi International Airport",
    "city": "Tbilisi",
    "lat": "41.669159",
    "lon": "44.954720",
    "country": "GEORGIA"
}, {
    "iata": "BER",
    "icao": "EDDB",
    "name": "Berlin Brandenburg Airport",
    "city": "Berlin",
    "lat": "52.362877",
    "lon": "13.503722",
    "country": "GERMANY"
}, {
    "iata": "BRE",
    "icao": "EDDW",
    "name": "Bremen Airport",
    "city": "Bremen",
    "lat": "53.047501",
    "lon": "8.786667",
    "country": "GERMANY"
}, {
    "iata": "CGN",
    "icao": "EDDK",
    "name": "Cologne Bonn Airport",
    "city": "Cologne",
    "lat": "50.866001",
    "lon": "7.143000",
    "country": "GERMANY"
}, {
    "iata": "DTM",
    "icao": "EDLW",
    "name": "Dortmund Airport",
    "city": "Dortmund",
    "lat": "51.518311",
    "lon": "7.612242",
    "country": "GERMANY"
}, {
    "iata": "DUS",
    "icao": "EDDL",
    "name": "Dusseldorf International Airport",
    "city": "Dusseldorf",
    "lat": "51.289452",
    "lon": "6.766775",
    "country": "GERMANY"
}, {
    "iata": "FRA",
    "icao": "EDDF",
    "name": "Frankfurt Airport",
    "city": "Frankfurt",
    "lat": "50.037796",
    "lon": "8.555783",
    "country": "GERMANY"
}, {
    "iata": "HAM",
    "icao": "EDDH",
    "name": "Hamburg Airport",
    "city": "Hamburg",
    "lat": "53.630379",
    "lon": "9.988228",
    "country": "GERMANY"
}, {
    "iata": "HAJ",
    "icao": "EDDV",
    "name": "Hannover Langenhagen Airport",
    "city": "Hannover",
    "lat": "52.461964",
    "lon": "9.687095",
    "country": "GERMANY"
}, {
    "iata": "MUC",
    "icao": "EDDM",
    "name": "Munich Airport",
    "city": "Munich",
    "lat": "48.353779",
    "lon": "11.786080",
    "country": "GERMANY"
}, {
    "iata": "NUE",
    "icao": "EDDN",
    "name": "Nuremberg Airport",
    "city": "Nuremberg",
    "lat": "49.498699",
    "lon": "11.066890",
    "country": "GERMANY"
}, {
    "iata": "SCN",
    "icao": "EDDR",
    "name": "Saarbrucken Airport",
    "city": "Saarbrucken",
    "lat": "49.214550",
    "lon": "7.109508",
    "country": "GERMANY"
}, {
    "iata": "STR",
    "icao": "EDDS",
    "name": "Stuttgart Airport",
    "city": "Stuttgart",
    "lat": "48.689869",
    "lon": "9.221964",
    "country": "GERMANY"
}, {
    "iata": "ATH",
    "icao": "LGAV",
    "name": "Athens Eleftherios Venizelos",
    "city": "Athens",
    "lat": "37.936352",
    "lon": "23.944460",
    "country": "GREECE"
}, {
    "iata": "BUD",
    "icao": "LHBP",
    "name": "Budapest Ferenc Liszt International Airport",
    "city": "Budapest",
    "lat": "47.436932",
    "lon": "19.255590",
    "country": "HUNGARY"
}, {
    "iata": "TBZ",
    "icao": "OITT",
    "name": "Tabriz International Airport",
    "city": "Tabriz",
    "lat": "38.133881",
    "lon": "46.235001",
    "country": "IRAN"
}, {
    "iata": "IKA",
    "icao": "OIIE",
    "name": "Tehran Imam Khomeini International Airport",
    "city": "Tehran",
    "lat": "35.416111",
    "lon": "51.152222",
    "country": "IRAN"
}, {
    "iata": "DUB",
    "icao": "EIDW",
    "name": "Dublin Airport",
    "city": "Dublin",
    "lat": "53.421379",
    "lon": "-6.270000",
    "country": "IRELAND"
}, {
    "iata": "TLV",
    "icao": "LLBG",
    "name": "Tel Aviv Ben Gurion International Airport",
    "city": "Tel Aviv",
    "lat": "32.011379",
    "lon": "34.886662",
    "country": "ISRAEL"
}, {
    "iata": "MXP",
    "icao": "LIMC",
    "name": "Milan Malpensa Airport",
    "city": "Milan",
    "lat": "45.630600",
    "lon": "8.728111",
    "country": "ITALY"
}, {
    "iata": "FCO",
    "icao": "LIRF",
    "name": "Rome Leonardo da Vinci Fiumicino Airport",
    "city": "Rome",
    "lat": "41.804470",
    "lon": "12.250790",
    "country": "ITALY"
}, {
    "iata": "VCE",
    "icao": "LIPZ",
    "name": "Venice Marco Polo Airport",
    "city": "Venice",
    "lat": "45.505268",
    "lon": "12.351940",
    "country": "ITALY"
}, {
    "iata": "LUX",
    "icao": "ELLX",
    "name": "Luxembourg Findel Airport",
    "city": "Luxembourg",
    "lat": "49.623329",
    "lon": "6.204444",
    "country": "LUXEMBOURG"
}, {
    "iata": "TGD",
    "icao": "LYPG",
    "name": "Podgorica Airport",
    "city": "Podgorica",
    "lat": "42.359390",
    "lon": "19.251890",
    "country": "MONTENEGRO"
}, {
    "iata": "AMS",
    "icao": "EHAM",
    "name": "Amsterdam Schiphol Airport",
    "city": "Amsterdam",
    "lat": "52.308609",
    "lon": "4.763889",
    "country": "NETHERLANDS"
}, {
    "iata": "EIN",
    "icao": "EHEH",
    "name": "Eindhoven Airport",
    "city": "Eindhoven",
    "lat": "51.450130",
    "lon": "5.374528",
    "country": "NETHERLANDS"
}, {
    "iata": "RTM",
    "icao": "EHRD",
    "name": "Rotterdam The Hague Airport",
    "city": "Rotterdam",
    "lat": "51.956940",
    "lon": "4.437222",
    "country": "NETHERLANDS"
}, {
    "iata": "SKP",
    "icao": "LWSK",
    "name": "Skopje International Airport",
    "city": "Skopje",
    "lat": "41.961620",
    "lon": "21.621380",
    "country": "NORTH MACEDONIA"
}, {
    "iata": "OSL",
    "icao": "ENGM",
    "name": "Oslo Gardermoen Airport",
    "city": "Oslo",
    "lat": "60.193909",
    "lon": "11.100360",
    "country": "NORWAY"
}, {
    "iata": "WAW",
    "icao": "EPWA",
    "name": "Warsaw Chopin Airport",
    "city": "Warsaw",
    "lat": "52.165749",
    "lon": "20.967119",
    "country": "POLAND"
}, {
    "iata": "LIS",
    "icao": "LPPT",
    "name": "Lisbon Humberto Delgado Airport",
    "city": "Lisbon",
    "lat": "38.781311",
    "lon": "-9.135910",
    "country": "PORTUGAL"
}, {
    "iata": "VKO",
    "icao": "UUWW",
    "name": "Moscow Vnukovo International Airport",
    "city": "Moscow",
    "lat": "55.591530",
    "lon": "37.261478",
    "country": "RUSSIA"
}, {
    "iata": "JED",
    "icao": "OEJN",
    "name": "Jeddah King Abdulaziz International Airport",
    "city": "Jeddah",
    "lat": "21.679560",
    "lon": "39.156528",
    "country": "SAUDI ARABIA"
}, {
    "iata": "BEG",
    "icao": "LYBE",
    "name": "Belgrade Nikola Tesla Airport",
    "city": "Belgrade",
    "lat": "44.818439",
    "lon": "20.309130",
    "country": "SERBIA"
}, {
    "iata": "BCN",
    "icao": "LEBL",
    "name": "Barcelona El Prat Airport",
    "city": "Barcelona",
    "lat": "41.297070",
    "lon": "2.078463",
    "country": "SPAIN"
}, {
    "iata": "MAD",
    "icao": "LEMD",
    "name": "Madrid Barajas Airport",
    "city": "Madrid",
    "lat": "40.488701",
    "lon": "-3.570000",
    "country": "SPAIN"
}, {
    "iata": "ARN",
    "icao": "ESSA",
    "name": "Stockholm Arlanda Airport",
    "city": "Stockholm",
    "lat": "59.653545",
    "lon": "17.939816",
    "country": "SWEDEN"
}, {
    "iata": "GVA",
    "icao": "LSGG",
    "name": "Geneva International Airport",
    "city": "Geneva",
    "lat": "46.238060",
    "lon": "6.108950",
    "country": "SWITZERLAND"
}, {
    "iata": "ZRH",
    "icao": "LSZH",
    "name": "Zurich Airport",
    "city": "Zurich",
    "lat": "47.464722",
    "lon": "8.549167",
    "country": "SWITZERLAND"
}, {
    "iata": "ESB",
    "icao": "LTAC",
    "name": "Ankara Esenboga International Airport",
    "city": "Ankara",
    "lat": "40.128078",
    "lon": "32.995079",
    "country": "TURKEY"
}, {
    "iata": "AYT",
    "icao": "LTAI",
    "name": "Antalya Airport",
    "city": "Antalya",
    "lat": "36.898731",
    "lon": "30.800461",
    "country": "TURKEY"
}, {
    "iata": "DIY",
    "icao": "LTCC",
    "name": "Diyarbakir Airport",
    "city": "Diyarbakir",
    "lat": "37.893890",
    "lon": "40.201012",
    "country": "TURKEY"
}, {
    "iata": "EZS",
    "icao": "LTCA",
    "name": "Elazig Airport",
    "city": "Elazig",
    "lat": "38.606918",
    "lon": "39.291409",
    "country": "TURKEY"
}, {
    "iata": "ECN",
    "icao": "LCEN",
    "name": "Ercan International Airport",
    "city": "Ercan",
    "lat": "35.155071",
    "lon": "33.502117",
    "country": "TURKEY"
}, {
    "iata": "ERZ",
    "icao": "LTCE",
    "name": "Erzurum Airport",
    "city": "Erzurum",
    "lat": "39.956501",
    "lon": "41.170158",
    "country": "TURKEY"
}, {
    "iata": "GZT",
    "icao": "LTAJ",
    "name": "Gaziantep Oguzeli Airport",
    "city": "Gaziantep",
    "lat": "36.947182",
    "lon": "37.478680",
    "country": "TURKEY"
}, {
    "iata": "IST",
    "icao": "LTFM",
    "name": "Istanbul Airport",
    "city": "Istanbul",
    "lat": "41.267052",
    "lon": "28.729757",
    "country": "TURKEY"
}, {
    "iata": "SAW",
    "icao": "LTFJ",
    "name": "Istanbul Sabiha Gokcen International Airport",
    "city": "Istanbul",
    "lat": "40.898548",
    "lon": "29.309210",
    "country": "TURKEY"
}, {
    "iata": "KSY",
    "icao": "LTCF",
    "name": "Kars Harakani Airport",
    "city": "Kars",
    "lat": "40.562222",
    "lon": "43.115002",
    "country": "TURKEY"
}, {
    "iata": "ASR",
    "icao": "LTAU",
    "name": "Kayseri Erkilet International Airport",
    "city": "Kayseri",
    "lat": "38.770378",
    "lon": "35.495419",
    "country": "TURKEY"
}, {
    "iata": "KYA",
    "icao": "LTAN",
    "name": "Konya Airport",
    "city": "Konya",
    "lat": "37.979000",
    "lon": "32.561859",
    "country": "TURKEY"
}, {
    "iata": "MLX",
    "icao": "LTAT",
    "name": "Malatya Erhac Airport",
    "city": "Malatya",
    "lat": "38.435341",
    "lon": "38.091000",
    "country": "TURKEY"
}, {
    "iata": "MQM",
    "icao": "LTCR",
    "name": "Mardin Airport",
    "city": "Mardin",
    "lat": "37.223331",
    "lon": "40.631660",
    "country": "TURKEY"
}, {
    "iata": "COV",
    "icao": "LTDB",
    "name": "Mersin Cukurova International Airport",
    "city": "Mersin",
    "lat": "36.892776",
    "lon": "35.072136",
    "country": "TURKEY"
}, {
    "iata": "RZV",
    "icao": "LTFO",
    "name": "Rize Artvin Airport",
    "city": "Rize",
    "lat": "41.180119",
    "lon": "40.849251",
    "country": "TURKEY"
}, {
    "iata": "SZF",
    "icao": "LTFH",
    "name": "Samsun Carsamba Airport",
    "city": "Samsun",
    "lat": "41.254478",
    "lon": "36.567101",
    "country": "TURKEY"
}, {
    "iata": "GNY",
    "icao": "LTCS",
    "name": "Sanliurfa GAP Airport",
    "city": "Sanliurfa",
    "lat": "37.450001",
    "lon": "38.900002",
    "country": "TURKEY"
}, {
    "iata": "VAS",
    "icao": "LTAR",
    "name": "Sivas Nuri Demirag Airport",
    "city": "Sivas",
    "lat": "39.813820",
    "lon": "36.903488",
    "country": "TURKEY"
}, {
    "iata": "TZX",
    "icao": "LTCG",
    "name": "Trabzon Airport",
    "city": "Trabzon",
    "lat": "40.995098",
    "lon": "39.789719",
    "country": "TURKEY"
}, {
    "iata": "VAN",
    "icao": "LTCI",
    "name": "Van Airport",
    "city": "Van",
    "lat": "38.468208",
    "lon": "43.332298",
    "country": "TURKEY"
}, {
    "iata": "DXB",
    "icao": "OMDB",
    "name": "Dubai International Airport",
    "city": "Dubai",
    "lat": "25.252769",
    "lon": "55.364441",
    "country": "UNITED ARAB EMIRATES"
}, {
    "iata": "BHX",
    "icao": "EGBB",
    "name": "Birmingham Airport",
    "city": "Birmingham",
    "lat": "52.453850",
    "lon": "-1.748020",
    "country": "UNITED KINGDOM"
}, {
    "iata": "BRS",
    "icao": "EGGD",
    "name": "Bristol Airport",
    "city": "Bristol",
    "lat": "51.382660",
    "lon": "-2.719080",
    "country": "UNITED KINGDOM"
}, {
    "iata": "EDI",
    "icao": "EGPH",
    "name": "Edinburgh Airport",
    "city": "Edinburgh",
    "lat": "55.950001",
    "lon": "-3.372500",
    "country": "UNITED KINGDOM"
}, {
    "iata": "GLA",
    "icao": "EGPF",
    "name": "Glasgow International Airport",
    "city": "Glasgow",
    "lat": "55.871941",
    "lon": "-4.433050",
    "country": "UNITED KINGDOM"
}, {
    "iata": "LBA",
    "icao": "EGNM",
    "name": "Leeds Bradford Airport",
    "city": "Leeds",
    "lat": "53.865891",
    "lon": "-1.660560",
    "country": "UNITED KINGDOM"
}, {
    "iata": "LPL",
    "icao": "EGGP",
    "name": "Liverpool John Lennon Airport",
    "city": "Liverpool",
    "lat": "53.333611",
    "lon": "-2.849720",
    "country": "UNITED KINGDOM"
}, {
    "iata": "LGW",
    "icao": "EGKK",
    "name": "London Gatwick Airport",
    "city": "London",
    "lat": "51.148048",
    "lon": "-0.190270",
    "country": "UNITED KINGDOM"
}, {
    "iata": "LTN",
    "icao": "EGGW",
    "name": "London Luton Airport",
    "city": "London",
    "lat": "51.874722",
    "lon": "-0.368330",
    "country": "UNITED KINGDOM"
}, {
    "iata": "STN",
    "icao": "EGSS",
    "name": "London Stansted Airport",
    "city": "London",
    "lat": "51.884998",
    "lon": "0.235000",
    "country": "UNITED KINGDOM"
}, {
    "iata": "MAN",
    "icao": "EGCC",
    "name": "Manchester Airport",
    "city": "Manchester",
    "lat": "53.353741",
    "lon": "-2.274950",
    "country": "UNITED KINGDOM"
}, {
    "iata": "NCL",
    "icao": "EGNT",
    "name": "Newcastle Airport",
    "city": "Newcastle",
    "lat": "55.037498",
    "lon": "-1.691660",
    "country": "UNITED KINGDOM"
}, {
    "iata": "EMA",
    "icao": "EGNX",
    "name": "Nottingham East Midlands Airport",
    "city": "Nottingham",
    "lat": "52.831108",
    "lon": "-1.328050",
    "country": "UNITED KINGDOM"
}, {
    "iata": "SKD",
    "icao": "UTSS",
    "name": "Samarkand International Airport",
    "city": "Samarkand",
    "lat": "39.700539",
    "lon": "66.983818",
    "country": "UZBEKISTAN"
}]
