[{
    "iata": "TIA",
    "icao": "LATI",
    "name": "Tirana International Airport",
    "city": "Tirana",
    "lat": "41.414742",
    "lon": "19.720560",
    "country": "ALBANIA"
}, {
    "iata": "PRG",
    "icao": "LKPR",
    "name": "Prague Vaclav Havel Airport",
    "city": "Prague",
    "lat": "50.100830",
    "lon": "14.260000",
    "country": "CZECHIA"
}, {
    "iata": "ATH",
    "icao": "LGAV",
    "name": "Athens Eleftherios Venizelos",
    "city": "Athens",
    "lat": "37.936352",
    "lon": "23.944460",
    "country": "GREECE"
}, {
    "iata": "CFU",
    "icao": "LGKR",
    "name": "Corfu International Airport",
    "city": "Corfu",
    "lat": "39.601955",
    "lon": "19.912003",
    "country": "GREECE"
}, {
    "iata": "RHO",
    "icao": "LGRP",
    "name": "Rhodes International Airport",
    "city": "Rhodes",
    "lat": "36.405411",
    "lon": "28.086189",
    "country": "GREECE"
}, {
    "iata": "SKG",
    "icao": "LGTS",
    "name": "Thessaloniki International Airport",
    "city": "Thessaloniki",
    "lat": "40.519718",
    "lon": "22.970949",
    "country": "GREECE"
}, {
    "iata": "SNN",
    "icao": "EINN",
    "name": "Shannon Airport",
    "city": "Shannon",
    "lat": "52.701969",
    "lon": "-8.924810",
    "country": "IRELAND"
}, {
    "iata": "ALA",
    "icao": "UAAA",
    "name": "Almaty International Airport",
    "city": "Almaty",
    "lat": "43.354755",
    "lon": "77.044792",
    "country": "KAZAKHSTAN"
}, {
    "iata": "RIX",
    "icao": "EVRA",
    "name": "Riga International Airport",
    "city": "Riga",
    "lat": "56.923611",
    "lon": "23.971109",
    "country": "LATVIA"
}, {
    "iata": "BEY",
    "icao": "OLBA",
    "name": "Beirut Rafic Hariri International Airport",
    "city": "Beirut",
    "lat": "33.820930",
    "lon": "35.488380",
    "country": "LEBANON"
}, {
    "iata": "AMS",
    "icao": "EHAM",
    "name": "Amsterdam Schiphol Airport",
    "city": "Amsterdam",
    "lat": "52.308609",
    "lon": "4.763889",
    "country": "NETHERLANDS"
}, {
    "iata": "VKO",
    "icao": "UUWW",
    "name": "Moscow Vnukovo International Airport",
    "city": "Moscow",
    "lat": "55.591530",
    "lon": "37.261478",
    "country": "RUSSIA"
}, {
    "iata": "BCN",
    "icao": "LEBL",
    "name": "Barcelona El Prat Airport",
    "city": "Barcelona",
    "lat": "41.297070",
    "lon": "2.078463",
    "country": "SPAIN"
}, {
    "iata": "AGP",
    "icao": "LEMG",
    "name": "Malaga Costa Del Sol Airport",
    "city": "Malaga",
    "lat": "36.679596",
    "lon": "-4.496117",
    "country": "SPAIN"
}]