[{
    "iata": "MSQ",
    "icao": "UMMS",
    "name": "Minsk National Airport",
    "city": "Minsk",
    "lat": "53.882462",
    "lon": "28.030729",
    "country": "BELARUS"
}, {
    "iata": "ANR",
    "icao": "EBAW",
    "name": "Antwerp International Airport",
    "city": "Antwerp",
    "lat": "51.190140",
    "lon": "4.462338",
    "country": "BELGIUM"
}, {
    "iata": "BRU",
    "icao": "EBBR",
    "name": "Brussels Airport",
    "city": "Brussels",
    "lat": "50.901379",
    "lon": "4.484444",
    "country": "BELGIUM"
}, {
    "iata": "SOF",
    "icao": "LBSF",
    "name": "Sofia Airport",
    "city": "Sofia",
    "lat": "42.695190",
    "lon": "23.406160",
    "country": "BULGARIA"
}, {
    "iata": "VAR",
    "icao": "LBWN",
    "name": "Varna Airport",
    "city": "Varna",
    "lat": "43.232071",
    "lon": "27.825100",
    "country": "BULGARIA"
}, {
    "iata": "ORY",
    "icao": "LFPO",
    "name": "Paris Orly Airport",
    "city": "Paris",
    "lat": "48.723331",
    "lon": "2.379444",
    "country": "FRANCE"
}, {
    "iata": "BER",
    "icao": "EDDB",
    "name": "Berlin Brandenburg Airport",
    "city": "Berlin",
    "lat": "52.362877",
    "lon": "13.503722",
    "country": "GERMANY"
}, {
    "iata": "CGN",
    "icao": "EDDK",
    "name": "Cologne Bonn Airport",
    "city": "Cologne",
    "lat": "50.866001",
    "lon": "7.143000",
    "country": "GERMANY"
}, {
    "iata": "DUS",
    "icao": "EDDL",
    "name": "Dusseldorf International Airport",
    "city": "Dusseldorf",
    "lat": "51.289452",
    "lon": "6.766775",
    "country": "GERMANY"
}, {
    "iata": "FRA",
    "icao": "EDDF",
    "name": "Frankfurt Airport",
    "city": "Frankfurt",
    "lat": "50.037796",
    "lon": "8.555783",
    "country": "GERMANY"
}, {
    "iata": "HAJ",
    "icao": "EDDV",
    "name": "Hannover Langenhagen Airport",
    "city": "Hannover",
    "lat": "52.461964",
    "lon": "9.687095",
    "country": "GERMANY"
}, {
    "iata": "MUC",
    "icao": "EDDM",
    "name": "Munich Airport",
    "city": "Munich",
    "lat": "48.353779",
    "lon": "11.786080",
    "country": "GERMANY"
}, {
    "iata": "STR",
    "icao": "EDDS",
    "name": "Stuttgart Airport",
    "city": "Stuttgart",
    "lat": "48.689869",
    "lon": "9.221964",
    "country": "GERMANY"
}, {
    "iata": "HER",
    "icao": "LGIR",
    "name": "Heraklion International Airport",
    "city": "Heraklion",
    "lat": "35.339710",
    "lon": "25.180290",
    "country": "GREECE"
}, {
    "iata": "RHO",
    "icao": "LGRP",
    "name": "Rhodes International Airport",
    "city": "Rhodes",
    "lat": "36.405411",
    "lon": "28.086189",
    "country": "GREECE"
}, {
    "iata": "IKA",
    "icao": "OIIE",
    "name": "Tehran Imam Khomeini International Airport",
    "city": "Tehran",
    "lat": "35.416111",
    "lon": "51.152222",
    "country": "IRAN"
}, {
    "iata": "DUB",
    "icao": "EIDW",
    "name": "Dublin Airport",
    "city": "Dublin",
    "lat": "53.421379",
    "lon": "-6.270000",
    "country": "IRELAND"
}, {
    "iata": "VNO",
    "icao": "EYVI",
    "name": "Vilnius International Airport",
    "city": "Vilnius",
    "lat": "54.637070",
    "lon": "25.287800",
    "country": "LITHUANIA"
}, {
    "iata": "AMS",
    "icao": "EHAM",
    "name": "Amsterdam Schiphol Airport",
    "city": "Amsterdam",
    "lat": "52.308609",
    "lon": "4.763889",
    "country": "NETHERLANDS"
}, {
    "iata": "GDN",
    "icao": "EPGD",
    "name": "Gdansk Lech Walesa Airport",
    "city": "Gdansk",
    "lat": "54.376484",
    "lon": "18.470640",
    "country": "POLAND"
}, {
    "iata": "KTW",
    "icao": "EPKT",
    "name": "Katowice International Airport",
    "city": "Katowice",
    "lat": "50.474251",
    "lon": "19.080009",
    "country": "POLAND"
}, {
    "iata": "WAW",
    "icao": "EPWA",
    "name": "Warsaw Chopin Airport",
    "city": "Warsaw",
    "lat": "52.165749",
    "lon": "20.967119",
    "country": "POLAND"
}, {
    "iata": "MRV",
    "icao": "URMM",
    "name": "Mineralnye Vody Airport",
    "city": "Mineralnye Vody",
    "lat": "44.225071",
    "lon": "43.081879",
    "country": "RUSSIA"
}, {
    "iata": "DME",
    "icao": "UUDD",
    "name": "Moscow Domodedovo International Airport",
    "city": "Moscow",
    "lat": "55.408779",
    "lon": "37.906311",
    "country": "RUSSIA"
}, {
    "iata": "SVO",
    "icao": "UUEE",
    "name": "Moscow Sheremetyevo International Airport",
    "city": "Moscow",
    "lat": "55.972641",
    "lon": "37.414581",
    "country": "RUSSIA"
}, {
    "iata": "VKO",
    "icao": "UUWW",
    "name": "Moscow Vnukovo International Airport",
    "city": "Moscow",
    "lat": "55.591530",
    "lon": "37.261478",
    "country": "RUSSIA"
}, {
    "iata": "LED",
    "icao": "ULLI",
    "name": "St. Petersburg Pulkovo Airport",
    "city": "St. Petersburg",
    "lat": "59.800289",
    "lon": "30.262501",
    "country": "RUSSIA"
}, {
    "iata": "ZRH",
    "icao": "LSZH",
    "name": "Zurich Airport",
    "city": "Zurich",
    "lat": "47.464722",
    "lon": "8.549167",
    "country": "SWITZERLAND"
}, {
    "iata": "ESB",
    "icao": "LTAC",
    "name": "Ankara Esenboga International Airport",
    "city": "Ankara",
    "lat": "40.128078",
    "lon": "32.995079",
    "country": "TURKEY"
}, {
    "iata": "AYT",
    "icao": "LTAI",
    "name": "Antalya Airport",
    "city": "Antalya",
    "lat": "36.898731",
    "lon": "30.800461",
    "country": "TURKEY"
}, {
    "iata": "IST",
    "icao": "LTFM",
    "name": "Istanbul Airport",
    "city": "Istanbul",
    "lat": "41.267052",
    "lon": "28.729757",
    "country": "TURKEY"
}, {
    "iata": "SAW",
    "icao": "LTFJ",
    "name": "Istanbul Sabiha Gokcen International Airport",
    "city": "Istanbul",
    "lat": "40.898548",
    "lon": "29.309210",
    "country": "TURKEY"
}, {
    "iata": "COV",
    "icao": "LTDB",
    "name": "Mersin Cukurova International Airport",
    "city": "Mersin",
    "lat": "36.892776",
    "lon": "35.072136",
    "country": "TURKEY"
}, {
    "iata": "BFS",
    "icao": "EGAA",
    "name": "Belfast International Airport",
    "city": "Belfast",
    "lat": "54.657501",
    "lon": "-6.215830",
    "country": "UNITED KINGDOM"
}, {
    "iata": "BHX",
    "icao": "EGBB",
    "name": "Birmingham Airport",
    "city": "Birmingham",
    "lat": "52.453850",
    "lon": "-1.748020",
    "country": "UNITED KINGDOM"
}, {
    "iata": "BRS",
    "icao": "EGGD",
    "name": "Bristol Airport",
    "city": "Bristol",
    "lat": "51.382660",
    "lon": "-2.719080",
    "country": "UNITED KINGDOM"
}, {
    "iata": "EDI",
    "icao": "EGPH",
    "name": "Edinburgh Airport",
    "city": "Edinburgh",
    "lat": "55.950001",
    "lon": "-3.372500",
    "country": "UNITED KINGDOM"
}, {
    "iata": "GLA",
    "icao": "EGPF",
    "name": "Glasgow International Airport",
    "city": "Glasgow",
    "lat": "55.871941",
    "lon": "-4.433050",
    "country": "UNITED KINGDOM"
}, {
    "iata": "LBA",
    "icao": "EGNM",
    "name": "Leeds Bradford Airport",
    "city": "Leeds",
    "lat": "53.865891",
    "lon": "-1.660560",
    "country": "UNITED KINGDOM"
}, {
    "iata": "LPL",
    "icao": "EGGP",
    "name": "Liverpool John Lennon Airport",
    "city": "Liverpool",
    "lat": "53.333611",
    "lon": "-2.849720",
    "country": "UNITED KINGDOM"
}, {
    "iata": "LGW",
    "icao": "EGKK",
    "name": "London Gatwick Airport",
    "city": "London",
    "lat": "51.148048",
    "lon": "-0.190270",
    "country": "UNITED KINGDOM"
}, {
    "iata": "LHR",
    "icao": "EGLL",
    "name": "London Heathrow Airport",
    "city": "London",
    "lat": "51.471626",
    "lon": "-0.467081",
    "country": "UNITED KINGDOM"
}, {
    "iata": "LTN",
    "icao": "EGGW",
    "name": "London Luton Airport",
    "city": "London",
    "lat": "51.874722",
    "lon": "-0.368330",
    "country": "UNITED KINGDOM"
}, {
    "iata": "STN",
    "icao": "EGSS",
    "name": "London Stansted Airport",
    "city": "London",
    "lat": "51.884998",
    "lon": "0.235000",
    "country": "UNITED KINGDOM"
}, {
    "iata": "MAN",
    "icao": "EGCC",
    "name": "Manchester Airport",
    "city": "Manchester",
    "lat": "53.353741",
    "lon": "-2.274950",
    "country": "UNITED KINGDOM"
}, {
    "iata": "NCL",
    "icao": "EGNT",
    "name": "Newcastle Airport",
    "city": "Newcastle",
    "lat": "55.037498",
    "lon": "-1.691660",
    "country": "UNITED KINGDOM"
}, {
    "iata": "EMA",
    "icao": "EGNX",
    "name": "Nottingham East Midlands Airport",
    "city": "Nottingham",
    "lat": "52.831108",
    "lon": "-1.328050",
    "country": "UNITED KINGDOM"
}]