[{
    "iata": "SOF",
    "icao": "LBSF",
    "name": "Sofia Airport",
    "city": "Sofia",
    "lat": "42.695190",
    "lon": "23.406160",
    "country": "BULGARIA"
}, {
    "iata": "BOD",
    "icao": "LFBD",
    "name": "Bordeaux Merignac Airport",
    "city": "Bordeaux",
    "lat": "44.828609",
    "lon": "-0.715270",
    "country": "FRANCE"
}, {
    "iata": "NCE",
    "icao": "LFMN",
    "name": "Nice Cote d'Azur Airport",
    "city": "Nice",
    "lat": "43.661453",
    "lon": "7.217360",
    "country": "FRANCE"
}, {
    "iata": "ERF",
    "icao": "EDDE",
    "name": "Erfurt Weimar Airport",
    "city": "Erfurt",
    "lat": "50.979809",
    "lon": "10.958100",
    "country": "GERMANY"
}, {
    "iata": "BUD",
    "icao": "LHBP",
    "name": "Budapest Ferenc Liszt International Airport",
    "city": "Budapest",
    "lat": "47.436932",
    "lon": "19.255590",
    "country": "HUNGARY"
}, {
    "iata": "ALA",
    "icao": "UAAA",
    "name": "Almaty International Airport",
    "city": "Almaty",
    "lat": "43.354755",
    "lon": "77.044792",
    "country": "KAZAKHSTAN"
}, {
    "iata": "BEY",
    "icao": "OLBA",
    "name": "Beirut Rafic Hariri International Airport",
    "city": "Beirut",
    "lat": "33.820930",
    "lon": "35.488380",
    "country": "LEBANON"
}, {
    "iata": "VKO",
    "icao": "UUWW",
    "name": "Moscow Vnukovo International Airport",
    "city": "Moscow",
    "lat": "55.591530",
    "lon": "37.261478",
    "country": "RUSSIA"
}, {
    "iata": "MAD",
    "icao": "LEMD",
    "name": "Madrid Barajas Airport",
    "city": "Madrid",
    "lat": "40.488701",
    "lon": "-3.570000",
    "country": "SPAIN"
}, {
    "iata": "IST",
    "icao": "LTFM",
    "name": "Istanbul Airport",
    "city": "Istanbul",
    "lat": "41.267052",
    "lon": "28.729757",
    "country": "TURKEY"
}, {
    "iata": "LTN",
    "icao": "EGGW",
    "name": "London Luton Airport",
    "city": "London",
    "lat": "51.874722",
    "lon": "-0.368330",
    "country": "UNITED KINGDOM"
}]