[{
    "iata": "CPH",
    "icao": "EKCH",
    "name": "Copenhagen Airport",
    "city": "Copenhagen",
    "lat": "55.616959",
    "lon": "12.645637",
    "country": "DENMARK"
}, {
    "iata": "DUS",
    "icao": "EDDL",
    "name": "Dusseldorf International Airport",
    "city": "Dusseldorf",
    "lat": "51.289452",
    "lon": "6.766775",
    "country": "GERMANY"
}, {
    "iata": "STR",
    "icao": "EDDS",
    "name": "Stuttgart Airport",
    "city": "Stuttgart",
    "lat": "48.689869",
    "lon": "9.221964",
    "country": "GERMANY"
}, {
    "iata": "AMS",
    "icao": "EHAM",
    "name": "Amsterdam Schiphol Airport",
    "city": "Amsterdam",
    "lat": "52.308609",
    "lon": "4.763889",
    "country": "NETHERLANDS"
}, {
    "iata": "ARN",
    "icao": "ESSA",
    "name": "Stockholm Arlanda Airport",
    "city": "Stockholm",
    "lat": "59.653545",
    "lon": "17.939816",
    "country": "SWEDEN"
}, {
    "iata": "IST",
    "icao": "LTFM",
    "name": "Istanbul Airport",
    "city": "Istanbul",
    "lat": "41.267052",
    "lon": "28.729757",
    "country": "TURKEY"
}, {
    "iata": "SAW",
    "icao": "LTFJ",
    "name": "Istanbul Sabiha Gokcen International Airport",
    "city": "Istanbul",
    "lat": "40.898548",
    "lon": "29.309210",
    "country": "TURKEY"
}, {
    "iata": "ADB",
    "icao": "LTBJ",
    "name": "Izmir Adnan Menderes International Airport",
    "city": "Izmir",
    "lat": "38.292389",
    "lon": "27.156950",
    "country": "TURKEY"
}]