[{
    "iata": "KBL",
    "icao": "OAKB",
    "name": "Kabul International Airport",
    "city": "Kabul",
    "lat": "34.565842",
    "lon": "69.212410",
    "country": "AFGHANISTAN"
}, {
    "iata": "MZR",
    "icao": "OAMS",
    "name": "Mazar-I-Sharif International Airport",
    "city": "Mazar-I-Sharif",
    "lat": "36.706909",
    "lon": "67.209671",
    "country": "AFGHANISTAN"
}, {
    "iata": "TIA",
    "icao": "LATI",
    "name": "Tirana International Airport",
    "city": "Tirana",
    "lat": "41.414742",
    "lon": "19.720560",
    "country": "ALBANIA"
}, {
    "iata": "ALG",
    "icao": "DAAG",
    "name": "Algiers Houari Boumediene Airport",
    "city": "Algiers",
    "lat": "36.691010",
    "lon": "3.215408",
    "country": "ALGERIA"
}, {
    "iata": "AAE",
    "icao": "DABB",
    "name": "Annaba Rabah Bitat Airport",
    "city": "Annaba",
    "lat": "36.822220",
    "lon": "7.809167",
    "country": "ALGERIA"
}, {
    "iata": "CZL",
    "icao": "DABC",
    "name": "Constantine Mohamed Boudiaf International Airport",
    "city": "Constantine",
    "lat": "36.276020",
    "lon": "6.620386",
    "country": "ALGERIA"
}, {
    "iata": "ORN",
    "icao": "DAOO",
    "name": "Oran Es Senia Airport",
    "city": "Oran",
    "lat": "35.623852",
    "lon": "-0.621180",
    "country": "ALGERIA"
}, {
    "iata": "LAD",
    "icao": "FNLU",
    "name": "Luanda Quatro de Fevereiro Airport",
    "city": "Luanda",
    "lat": "-8.859176",
    "lon": "13.232758",
    "country": "ANGOLA"
}, {
    "iata": "EVN",
    "icao": "UDYZ",
    "name": "Yerevan Zvartnots International Airport",
    "city": "Yerevan",
    "lat": "40.147270",
    "lon": "44.395882",
    "country": "ARMENIA"
}, {
    "iata": "SZG",
    "icao": "LOWS",
    "name": "Salzburg Airport",
    "city": "Salzburg",
    "lat": "47.794266",
    "lon": "13.003386",
    "country": "AUSTRIA"
}, {
    "iata": "VIE",
    "icao": "LOWW",
    "name": "Vienna International Airport",
    "city": "Vienna",
    "lat": "48.110271",
    "lon": "16.569719",
    "country": "AUSTRIA"
}, {
    "iata": "GYD",
    "icao": "UBBB",
    "name": "Baku Heydar Aliyev International Airport",
    "city": "Baku",
    "lat": "40.467499",
    "lon": "50.046661",
    "country": "AZERBAIJAN"
}, {
    "iata": "NAJ",
    "icao": "UBBN",
    "name": "Nakhchivan International Airport",
    "city": "Nakhchivan",
    "lat": "39.188610",
    "lon": "45.458332",
    "country": "AZERBAIJAN"
}, {
    "iata": "BAH",
    "icao": "OBBI",
    "name": "Bahrain International Airport",
    "city": "Bahrain",
    "lat": "26.270830",
    "lon": "50.633610",
    "country": "BAHRAIN"
}, {
    "iata": "DAC",
    "icao": "VGHS",
    "name": "Dhaka Shahjalal International Airport",
    "city": "Dhaka",
    "lat": "23.843330",
    "lon": "90.397781",
    "country": "BANGLADESH"
}, {
    "iata": "MSQ",
    "icao": "UMMS",
    "name": "Minsk National Airport",
    "city": "Minsk",
    "lat": "53.882462",
    "lon": "28.030729",
    "country": "BELARUS"
}, {
    "iata": "BRU",
    "icao": "EBBR",
    "name": "Brussels Airport",
    "city": "Brussels",
    "lat": "50.901379",
    "lon": "4.484444",
    "country": "BELGIUM"
}, {
    "iata": "LGG",
    "icao": "EBLG",
    "name": "Liege Airport",
    "city": "Liege",
    "lat": "50.636379",
    "lon": "5.442778",
    "country": "BELGIUM"
}, {
    "iata": "COO",
    "icao": "DBBB",
    "name": "Cotonou Cadjehoun Airport",
    "city": "Cotonou",
    "lat": "6.357228",
    "lon": "2.384353",
    "country": "BENIN"
}, {
    "iata": "SJJ",
    "icao": "LQSA",
    "name": "Sarajevo International Airport",
    "city": "Sarajevo",
    "lat": "43.824581",
    "lon": "18.331461",
    "country": "BOSNIA AND HERZEGOVINA"
}, {
    "iata": "GRU",
    "icao": "SBGR",
    "name": "Sao Paulo Guarulhos International Airport",
    "city": "Sao Paulo",
    "lat": "-23.431999",
    "lon": "-46.469501",
    "country": "BRAZIL"
}, {
    "iata": "SOF",
    "icao": "LBSF",
    "name": "Sofia Airport",
    "city": "Sofia",
    "lat": "42.695190",
    "lon": "23.406160",
    "country": "BULGARIA"
}, {
    "iata": "VAR",
    "icao": "LBWN",
    "name": "Varna Airport",
    "city": "Varna",
    "lat": "43.232071",
    "lon": "27.825100",
    "country": "BULGARIA"
}, {
    "iata": "OUA",
    "icao": "DFFD",
    "name": "Ouagadougou Airport",
    "city": "Ouagadougou",
    "lat": "12.353190",
    "lon": "-1.512410",
    "country": "BURKINA FASO"
}, {
    "iata": "DLA",
    "icao": "FKKD",
    "name": "Douala International Airport",
    "city": "Douala",
    "lat": "4.006081",
    "lon": "9.719481",
    "country": "CAMEROON"
}, {
    "iata": "NSI",
    "icao": "FKYS",
    "name": "Yaounde Airport",
    "city": "Yaounde",
    "lat": "3.722556",
    "lon": "11.553260",
    "country": "CAMEROON"
}, {
    "iata": "YUL",
    "icao": "CYUL",
    "name": "Montreal Pierre Elliott Trudeau Airport",
    "city": "Montreal",
    "lat": "45.470551",
    "lon": "-73.740799",
    "country": "CANADA"
}, {
    "iata": "YYZ",
    "icao": "CYYZ",
    "name": "Toronto Pearson International Airport",
    "city": "Toronto",
    "lat": "43.680634",
    "lon": "-79.627007",
    "country": "CANADA"
}, {
    "iata": "YVR",
    "icao": "CYVR",
    "name": "Vancouver International Airport",
    "city": "Vancouver",
    "lat": "49.193878",
    "lon": "-123.183998",
    "country": "CANADA"
}, {
    "iata": "NDJ",
    "icao": "FTTJ",
    "name": "N'Djamena International Airport",
    "city": "N'Djamena",
    "lat": "12.133680",
    "lon": "15.034010",
    "country": "CHAD"
}, {
    "iata": "PEK",
    "icao": "ZBAA",
    "name": "Beijing Capital International Airport",
    "city": "Beijing",
    "lat": "40.084152",
    "lon": "116.592735",
    "country": "CHINA"
}, {
    "iata": "PKX",
    "icao": "ZBAD",
    "name": "Beijing Daxing International Airport",
    "city": "Beijing",
    "lat": "39.509167",
    "lon": "116.410553",
    "country": "CHINA"
}, {
    "iata": "TFU",
    "icao": "ZUTF",
    "name": "Chengdu Tianfu International Airport",
    "city": "Chengdu",
    "lat": "30.319000",
    "lon": "104.445000",
    "country": "CHINA"
}, {
    "iata": "CAN",
    "icao": "ZGGG",
    "name": "Guangzhou Baiyun International Airport",
    "city": "Guangzhou",
    "lat": "23.392429",
    "lon": "113.298698",
    "country": "CHINA"
}, {
    "iata": "PVG",
    "icao": "ZSPD",
    "name": "Shanghai Pudong International Airport",
    "city": "Shanghai",
    "lat": "31.143370",
    "lon": "121.805199",
    "country": "CHINA"
}, {
    "iata": "SZX",
    "icao": "ZGSZ",
    "name": "Shenzhen Bao'an International Airport",
    "city": "Shenzhen",
    "lat": "22.638775",
    "lon": "113.803993",
    "country": "CHINA"
}, {
    "iata": "URC",
    "icao": "ZWWW",
    "name": "Urumqi Diwopu International Airport",
    "city": "Urumqi",
    "lat": "43.907101",
    "lon": "87.474243",
    "country": "CHINA"
}, {
    "iata": "BOG",
    "icao": "SKBO",
    "name": "Bogota El Dorado International Airport",
    "city": "Bogota",
    "lat": "4.703056",
    "lon": "-74.138298",
    "country": "COLOMBIA"
}, {
    "iata": "DBV",
    "icao": "LDDU",
    "name": "Dubrovnik Rudjer Boskovic Airport",
    "city": "Dubrovnik",
    "lat": "42.561352",
    "lon": "18.268240",
    "country": "CROATIA"
}, {
    "iata": "SPU",
    "icao": "LDSP",
    "name": "Split Airport",
    "city": "Split",
    "lat": "43.538940",
    "lon": "16.297960",
    "country": "CROATIA"
}, {
    "iata": "ZAG",
    "icao": "LDZA",
    "name": "Zagreb Franjo Tudman Airport",
    "city": "Zagreb",
    "lat": "45.742931",
    "lon": "16.068769",
    "country": "CROATIA"
}, {
    "iata": "HAV",
    "icao": "MUHA",
    "name": "Havana Jose Marti International Airport",
    "city": "Havana",
    "lat": "22.989149",
    "lon": "-82.408997",
    "country": "CUBA"
}, {
    "iata": "PRG",
    "icao": "LKPR",
    "name": "Prague Vaclav Havel Airport",
    "city": "Prague",
    "lat": "50.100830",
    "lon": "14.260000",
    "country": "CZECHIA"
}, {
    "iata": "FIH",
    "icao": "FZAA",
    "name": "Kinshasa N'Djili Airport",
    "city": "Kinshasa",
    "lat": "-4.385750",
    "lon": "15.444560",
    "country": "DEMOCRATIC REPUBLIC OF THE CONGO"
}, {
    "iata": "BLL",
    "icao": "EKBI",
    "name": "Billund Airport",
    "city": "Billund",
    "lat": "55.740318",
    "lon": "9.151778",
    "country": "DENMARK"
}, {
    "iata": "CPH",
    "icao": "EKCH",
    "name": "Copenhagen Airport",
    "city": "Copenhagen",
    "lat": "55.616959",
    "lon": "12.645637",
    "country": "DENMARK"
}, {
    "iata": "JIB",
    "icao": "HDAM",
    "name": "Djibouti Ambouli International Airport",
    "city": "Djibouti",
    "lat": "11.547330",
    "lon": "43.159481",
    "country": "DJIBOUTI"
}, {
    "iata": "HBE",
    "icao": "HEBA",
    "name": "Alexandria Borg El Arab Airport",
    "city": "Alexandria",
    "lat": "30.917660",
    "lon": "29.696400",
    "country": "EGYPT"
}, {
    "iata": "CAI",
    "icao": "HECA",
    "name": "Cairo International Airport",
    "city": "Cairo",
    "lat": "30.121941",
    "lon": "31.405550",
    "country": "EGYPT"
}, {
    "iata": "HRG",
    "icao": "HEGN",
    "name": "Hurghada International Airport",
    "city": "Hurghada",
    "lat": "27.178310",
    "lon": "33.799431",
    "country": "EGYPT"
}, {
    "iata": "SSH",
    "icao": "HESH",
    "name": "Sharm el-Sheikh International Airport",
    "city": "Sharm el-Sheikh",
    "lat": "27.977280",
    "lon": "34.394951",
    "country": "EGYPT"
}, {
    "iata": "ASM",
    "icao": "HHAS",
    "name": "Asmara International Airport",
    "city": "Asmara",
    "lat": "15.291850",
    "lon": "38.910660",
    "country": "ERITREA"
}, {
    "iata": "TLL",
    "icao": "EETN",
    "name": "Tallinn Lennart Meri Airport ",
    "city": "Tallinn",
    "lat": "59.413311",
    "lon": "24.832840",
    "country": "ESTONIA"
}, {
    "iata": "ADD",
    "icao": "HAAB",
    "name": "Addis Ababa Bole Airport",
    "city": "Addis Ababa",
    "lat": "8.977889",
    "lon": "38.799309",
    "country": "ETHIOPIA"
}, {
    "iata": "HEL",
    "icao": "EFHK",
    "name": "Helsinki Vantaa Airport",
    "city": "Helsinki",
    "lat": "60.325657",
    "lon": "24.968779",
    "country": "FINLAND"
}, {
    "iata": "BSL",
    "icao": "LFSB",
    "name": "Basel Mulhouse-Freiburg EuroAirport",
    "city": "Basel",
    "lat": "47.598900",
    "lon": "7.528300",
    "country": "FRANCE"
}, {
    "iata": "BOD",
    "icao": "LFBD",
    "name": "Bordeaux Merignac Airport",
    "city": "Bordeaux",
    "lat": "44.828609",
    "lon": "-0.715270",
    "country": "FRANCE"
}, {
    "iata": "LYS",
    "icao": "LFLL",
    "name": "Lyon Saint Exupery Airport",
    "city": "Lyon",
    "lat": "45.719643",
    "lon": "5.089108",
    "country": "FRANCE"
}, {
    "iata": "MRS",
    "icao": "LFML",
    "name": "Marseille Provence Airport",
    "city": "Marseille",
    "lat": "43.436661",
    "lon": "5.215000",
    "country": "FRANCE"
}, {
    "iata": "MPL",
    "icao": "LFMT",
    "name": "Montpellier Mediterranee Airport",
    "city": "Montpellier",
    "lat": "43.580280",
    "lon": "3.967440",
    "country": "FRANCE"
}, {
    "iata": "NTE",
    "icao": "LFRS",
    "name": "Nantes Atlantique Airport",
    "city": "Nantes",
    "lat": "47.156940",
    "lon": "-1.607770",
    "country": "FRANCE"
}, {
    "iata": "NCE",
    "icao": "LFMN",
    "name": "Nice Cote d'Azur Airport",
    "city": "Nice",
    "lat": "43.661453",
    "lon": "7.217360",
    "country": "FRANCE"
}, {
    "iata": "CDG",
    "icao": "LFPG",
    "name": "Paris Charles de Gaulle Airport",
    "city": "Paris",
    "lat": "49.012516",
    "lon": "2.555752",
    "country": "FRANCE"
}, {
    "iata": "ORY",
    "icao": "LFPO",
    "name": "Paris Orly Airport",
    "city": "Paris",
    "lat": "48.723331",
    "lon": "2.379444",
    "country": "FRANCE"
}, {
    "iata": "TLS",
    "icao": "LFBO",
    "name": "Toulouse Blagnac Airport",
    "city": "Toulouse",
    "lat": "43.628101",
    "lon": "1.367263",
    "country": "FRANCE"
}, {
    "iata": "LBV",
    "icao": "FOOL",
    "name": "Libreville International Airport",
    "city": "Libreville",
    "lat": "0.458600",
    "lon": "9.412283",
    "country": "GABON"
}, {
    "iata": "BJL",
    "icao": "GBYD",
    "name": "Banjul International Airport",
    "city": "Banjul",
    "lat": "13.337960",
    "lon": "-16.652201",
    "country": "GAMBIA"
}, {
    "iata": "BUS",
    "icao": "UGSB",
    "name": "Batumi International Airport",
    "city": "Batumi",
    "lat": "41.610271",
    "lon": "41.599689",
    "country": "GEORGIA"
}, {
    "iata": "TBS",
    "icao": "UGTB",
    "name": "Tbilisi International Airport",
    "city": "Tbilisi",
    "lat": "41.669159",
    "lon": "44.954720",
    "country": "GEORGIA"
}, {
    "iata": "BER",
    "icao": "EDDB",
    "name": "Berlin Brandenburg Airport",
    "city": "Berlin",
    "lat": "52.362877",
    "lon": "13.503722",
    "country": "GERMANY"
}, {
    "iata": "BRE",
    "icao": "EDDW",
    "name": "Bremen Airport",
    "city": "Bremen",
    "lat": "53.047501",
    "lon": "8.786667",
    "country": "GERMANY"
}, {
    "iata": "CGN",
    "icao": "EDDK",
    "name": "Cologne Bonn Airport",
    "city": "Cologne",
    "lat": "50.866001",
    "lon": "7.143000",
    "country": "GERMANY"
}, {
    "iata": "DUS",
    "icao": "EDDL",
    "name": "Dusseldorf International Airport",
    "city": "Dusseldorf",
    "lat": "51.289452",
    "lon": "6.766775",
    "country": "GERMANY"
}, {
    "iata": "FRA",
    "icao": "EDDF",
    "name": "Frankfurt Airport",
    "city": "Frankfurt",
    "lat": "50.037796",
    "lon": "8.555783",
    "country": "GERMANY"
}, {
    "iata": "GHF",
    "icao": "EDQG",
    "name": "Giebelstadt Airport",
    "city": "Giebelstadt",
    "lat": "49.648056",
    "lon": "9.966389",
    "country": "GERMANY"
}, {
    "iata": "HAM",
    "icao": "EDDH",
    "name": "Hamburg Airport",
    "city": "Hamburg",
    "lat": "53.630379",
    "lon": "9.988228",
    "country": "GERMANY"
}, {
    "iata": "HAJ",
    "icao": "EDDV",
    "name": "Hannover Langenhagen Airport",
    "city": "Hannover",
    "lat": "52.461964",
    "lon": "9.687095",
    "country": "GERMANY"
}, {
    "iata": "LEJ",
    "icao": "EDDP",
    "name": "Leipzig Halle Airport",
    "city": "Leipzig",
    "lat": "51.432442",
    "lon": "12.241630",
    "country": "GERMANY"
}, {
    "iata": "MUC",
    "icao": "EDDM",
    "name": "Munich Airport",
    "city": "Munich",
    "lat": "48.353779",
    "lon": "11.786080",
    "country": "GERMANY"
}, {
    "iata": "NUE",
    "icao": "EDDN",
    "name": "Nuremberg Airport",
    "city": "Nuremberg",
    "lat": "49.498699",
    "lon": "11.066890",
    "country": "GERMANY"
}, {
    "iata": "STR",
    "icao": "EDDS",
    "name": "Stuttgart Airport",
    "city": "Stuttgart",
    "lat": "48.689869",
    "lon": "9.221964",
    "country": "GERMANY"
}, {
    "iata": "ACC",
    "icao": "DGAA",
    "name": "Accra Kotoka International Airport",
    "city": "Accra",
    "lat": "5.605186",
    "lon": "-0.166780",
    "country": "GHANA"
}, {
    "iata": "ATH",
    "icao": "LGAV",
    "name": "Athens Eleftherios Venizelos",
    "city": "Athens",
    "lat": "37.936352",
    "lon": "23.944460",
    "country": "GREECE"
}, {
    "iata": "SKG",
    "icao": "LGTS",
    "name": "Thessaloniki International Airport",
    "city": "Thessaloniki",
    "lat": "40.519718",
    "lon": "22.970949",
    "country": "GREECE"
}, {
    "iata": "HKG",
    "icao": "VHHH",
    "name": "Hong Kong International Airport",
    "city": "Hong Kong",
    "lat": "22.309616",
    "lon": "113.916237",
    "country": "HONG KONG"
}, {
    "iata": "BUD",
    "icao": "LHBP",
    "name": "Budapest Ferenc Liszt International Airport",
    "city": "Budapest",
    "lat": "47.436932",
    "lon": "19.255590",
    "country": "HUNGARY"
}, {
    "iata": "DEB",
    "icao": "LHDC",
    "name": "Debrecen International Airport",
    "city": "Debrecen",
    "lat": "47.488911",
    "lon": "21.615330",
    "country": "HUNGARY"
}, {
    "iata": "BLR",
    "icao": "VOBL",
    "name": "Bengaluru Kempegowda International Airport",
    "city": "Bengaluru",
    "lat": "13.198889",
    "lon": "77.705559",
    "country": "INDIA"
}, {
    "iata": "MAA",
    "icao": "VOMM",
    "name": "Chennai International Airport",
    "city": "Chennai",
    "lat": "12.994410",
    "lon": "80.180511",
    "country": "INDIA"
}, {
    "iata": "DEL",
    "icao": "VIDP",
    "name": "Delhi Indira Gandhi International Airport",
    "city": "Delhi",
    "lat": "28.566500",
    "lon": "77.103081",
    "country": "INDIA"
}, {
    "iata": "BOM",
    "icao": "VABB",
    "name": "Mumbai Chhatrapati Shivaji International Airport",
    "city": "Mumbai",
    "lat": "19.088680",
    "lon": "72.867912",
    "country": "INDIA"
}, {
    "iata": "DPS",
    "icao": "WADD",
    "name": "Denpasar Ngurah Rai International Airport",
    "city": "Denpasar",
    "lat": "-8.748160",
    "lon": "115.167099",
    "country": "INDONESIA"
}, {
    "iata": "CGK",
    "icao": "WIII",
    "name": "Jakarta Soekarno Hatta International Airport",
    "city": "Jakarta",
    "lat": "-6.125560",
    "lon": "106.655800",
    "country": "INDONESIA"
}, {
    "iata": "IFN",
    "icao": "OIFM",
    "name": "Isfahan International Airport",
    "city": "Isfahan",
    "lat": "32.750832",
    "lon": "51.861259",
    "country": "IRAN"
}, {
    "iata": "MHD",
    "icao": "OIMM",
    "name": "Mashhad International Airport",
    "city": "Mashhad",
    "lat": "36.235191",
    "lon": "59.640968",
    "country": "IRAN"
}, {
    "iata": "SYZ",
    "icao": "OISS",
    "name": "Shiraz International Airport",
    "city": "Shiraz",
    "lat": "29.539240",
    "lon": "52.589779",
    "country": "IRAN"
}, {
    "iata": "TBZ",
    "icao": "OITT",
    "name": "Tabriz International Airport",
    "city": "Tabriz",
    "lat": "38.133881",
    "lon": "46.235001",
    "country": "IRAN"
}, {
    "iata": "IKA",
    "icao": "OIIE",
    "name": "Tehran Imam Khomeini International Airport",
    "city": "Tehran",
    "lat": "35.416111",
    "lon": "51.152222",
    "country": "IRAN"
}, {
    "iata": "OMH",
    "icao": "OITR",
    "name": "Urmia Airport",
    "city": "Urmia",
    "lat": "37.668121",
    "lon": "45.068699",
    "country": "IRAN"
}, {
    "iata": "NJF",
    "icao": "ORNI",
    "name": "Al Najaf International Airport",
    "city": "Najaf",
    "lat": "31.991667",
    "lon": "44.404167",
    "country": "IRAQ"
}, {
    "iata": "BGW",
    "icao": "ORBI",
    "name": "Baghdad International Airport",
    "city": "Baghdad",
    "lat": "33.262501",
    "lon": "44.234444",
    "country": "IRAQ"
}, {
    "iata": "BSR",
    "icao": "ORMM",
    "name": "Basra International Airport",
    "city": "Basra",
    "lat": "30.549061",
    "lon": "47.662140",
    "country": "IRAQ"
}, {
    "iata": "EBL",
    "icao": "ORER",
    "name": "Erbil International Airport",
    "city": "Erbil",
    "lat": "36.240482",
    "lon": "43.946671",
    "country": "IRAQ"
}, {
    "iata": "KIK",
    "icao": "ORKK",
    "name": "Kirkuk International Airport",
    "city": "Kirkuk",
    "lat": "35.469292",
    "lon": "44.347012",
    "country": "IRAQ"
}, {
    "iata": "DUB",
    "icao": "EIDW",
    "name": "Dublin Airport",
    "city": "Dublin",
    "lat": "53.421379",
    "lon": "-6.270000",
    "country": "IRELAND"
}, {
    "iata": "TLV",
    "icao": "LLBG",
    "name": "Tel Aviv Ben Gurion International Airport",
    "city": "Tel Aviv",
    "lat": "32.011379",
    "lon": "34.886662",
    "country": "ISRAEL"
}, {
    "iata": "BRI",
    "icao": "LIBD",
    "name": "Bari Karol Wojtyla Airport",
    "city": "Bari",
    "lat": "41.138527",
    "lon": "16.760633",
    "country": "ITALY"
}, {
    "iata": "BLQ",
    "icao": "LIPE",
    "name": "Bologna Guglielmo Marconi Airport",
    "city": "Bologna",
    "lat": "44.535439",
    "lon": "11.288660",
    "country": "ITALY"
}, {
    "iata": "CTA",
    "icao": "LICC",
    "name": "Catania Fontanarossa Airport",
    "city": "Catania",
    "lat": "37.466782",
    "lon": "15.066400",
    "country": "ITALY"
}, {
    "iata": "MXP",
    "icao": "LIMC",
    "name": "Milan Malpensa Airport",
    "city": "Milan",
    "lat": "45.630600",
    "lon": "8.728111",
    "country": "ITALY"
}, {
    "iata": "NAP",
    "icao": "LIRN",
    "name": "Naples Airport",
    "city": "Naples",
    "lat": "40.886028",
    "lon": "14.290780",
    "country": "ITALY"
}, {
    "iata": "PMO",
    "icao": "LICJ",
    "name": "Palermo Falcone-Borsellino Airport",
    "city": "Palermo",
    "lat": "38.175949",
    "lon": "13.091010",
    "country": "ITALY"
}, {
    "iata": "FCO",
    "icao": "LIRF",
    "name": "Rome Leonardo da Vinci Fiumicino Airport",
    "city": "Rome",
    "lat": "41.804470",
    "lon": "12.250790",
    "country": "ITALY"
}, {
    "iata": "TRN",
    "icao": "LIMF",
    "name": "Turin Caselle Airport",
    "city": "Turin",
    "lat": "45.200760",
    "lon": "7.649631",
    "country": "ITALY"
}, {
    "iata": "VCE",
    "icao": "LIPZ",
    "name": "Venice Marco Polo Airport",
    "city": "Venice",
    "lat": "45.505268",
    "lon": "12.351940",
    "country": "ITALY"
}, {
    "iata": "ABJ",
    "icao": "DIAP",
    "name": "Abidjan Port Bouet Airport",
    "city": "Abidjan",
    "lat": "5.261386",
    "lon": "-3.926290",
    "country": "IVORY COAST"
}, {
    "iata": "KIX",
    "icao": "RJBB",
    "name": "Osaka Kansai International Airport",
    "city": "Osaka",
    "lat": "34.427299",
    "lon": "135.244003",
    "country": "JAPAN"
}, {
    "iata": "HND",
    "icao": "RJTT",
    "name": "Tokyo Haneda International Airport",
    "city": "Tokyo",
    "lat": "35.552250",
    "lon": "139.779602",
    "country": "JAPAN"
}, {
    "iata": "NRT",
    "icao": "RJAA",
    "name": "Tokyo Narita International Airport",
    "city": "Tokyo",
    "lat": "35.764721",
    "lon": "140.386307",
    "country": "JAPAN"
}, {
    "iata": "AMM",
    "icao": "OJAI",
    "name": "Amman Queen Alia International Airport",
    "city": "Amman",
    "lat": "31.722549",
    "lon": "35.993210",
    "country": "JORDAN"
}, {
    "iata": "AQJ",
    "icao": "OJAQ",
    "name": "Aqaba King Hussein International Airport",
    "city": "Aqaba",
    "lat": "29.611610",
    "lon": "35.018059",
    "country": "JORDAN"
}, {
    "iata": "SCO",
    "icao": "UATE",
    "name": "Aktau Airport",
    "city": "Aktau",
    "lat": "43.860050",
    "lon": "51.091969",
    "country": "KAZAKHSTAN"
}, {
    "iata": "AKX",
    "icao": "UATT",
    "name": "Aktobe Airport",
    "city": "Aktobe",
    "lat": "50.245831",
    "lon": "57.206661",
    "country": "KAZAKHSTAN"
}, {
    "iata": "ALA",
    "icao": "UAAA",
    "name": "Almaty International Airport",
    "city": "Almaty",
    "lat": "43.354755",
    "lon": "77.044792",
    "country": "KAZAKHSTAN"
}, {
    "iata": "NQZ",
    "icao": "UACC",
    "name": "Astana Nursultan Nazarbayev International Airport",
    "city": "Astana",
    "lat": "51.022221",
    "lon": "71.466942",
    "country": "KAZAKHSTAN"
}, {
    "iata": "GUW",
    "icao": "UATG",
    "name": "Atyrau Airport",
    "city": "Atyrau",
    "lat": "47.121941",
    "lon": "51.821381",
    "country": "KAZAKHSTAN"
}, {
    "iata": "CIT",
    "icao": "UAII",
    "name": "Shymkent International Airport",
    "city": "Shymkent",
    "lat": "42.364159",
    "lon": "69.478882",
    "country": "KAZAKHSTAN"
}, {
    "iata": "HSA",
    "icao": "UAIT",
    "name": "Turkistan Hazret Sultan International Airport",
    "city": "Turkistan",
    "lat": "43.311111",
    "lon": "68.550278",
    "country": "KAZAKHSTAN"
}, {
    "iata": "NBO",
    "icao": "HKJK",
    "name": "Nairobi Jomo Kenyatta International Airport",
    "city": "Nairobi",
    "lat": "-1.319240",
    "lon": "36.927769",
    "country": "KENYA"
}, {
    "iata": "PRN",
    "icao": "BKPR",
    "name": "Pristina Adem Jashari International Airport",
    "city": "Pristina",
    "lat": "42.572769",
    "lon": "21.035830",
    "country": "KOSOVO"
}, {
    "iata": "KWI",
    "icao": "OKKK",
    "name": "Kuwait International Airport",
    "city": "Kuwait City",
    "lat": "29.226561",
    "lon": "47.968922",
    "country": "KUWAIT"
}, {
    "iata": "FRU",
    "icao": "UCFM",
    "name": "Bishkek Manas International Airport",
    "city": "Bishkek",
    "lat": "43.061298",
    "lon": "74.477547",
    "country": "KYRGYZSTAN"
}, {
    "iata": "RIX",
    "icao": "EVRA",
    "name": "Riga International Airport",
    "city": "Riga",
    "lat": "56.923611",
    "lon": "23.971109",
    "country": "LATVIA"
}, {
    "iata": "BEY",
    "icao": "OLBA",
    "name": "Beirut Rafic Hariri International Airport",
    "city": "Beirut",
    "lat": "33.820930",
    "lon": "35.488380",
    "country": "LEBANON"
}, {
    "iata": "BEN",
    "icao": "HLLB",
    "name": "Benghazi Benina International Airport",
    "city": "Benghazi",
    "lat": "32.095215",
    "lon": "20.268740",
    "country": "LIBYA"
}, {
    "iata": "MRA",
    "icao": "HLMS",
    "name": "Misrata International Airport",
    "city": "Misrata",
    "lat": "32.327263",
    "lon": "15.059550",
    "country": "LIBYA"
}, {
    "iata": "MJI",
    "icao": "HLLM",
    "name": "Tripoli Mitiga International Airport",
    "city": "Tripoli",
    "lat": "32.892830",
    "lon": "13.283325",
    "country": "LIBYA"
}, {
    "iata": "VNO",
    "icao": "EYVI",
    "name": "Vilnius International Airport",
    "city": "Vilnius",
    "lat": "54.637070",
    "lon": "25.287800",
    "country": "LITHUANIA"
}, {
    "iata": "LUX",
    "icao": "ELLX",
    "name": "Luxembourg Findel Airport",
    "city": "Luxembourg",
    "lat": "49.623329",
    "lon": "6.204444",
    "country": "LUXEMBOURG"
}, {
    "iata": "TNR",
    "icao": "FMMI",
    "name": "Antananarivo Ivato International Airport",
    "city": "Antananarivo",
    "lat": "-18.796900",
    "lon": "47.478802",
    "country": "MADAGASCAR"
}, {
    "iata": "KUL",
    "icao": "WMKK",
    "name": "Kuala Lumpur International Airport",
    "city": "Kuala Lumpur",
    "lat": "2.745578",
    "lon": "101.709900",
    "country": "MALAYSIA"
}, {
    "iata": "MLE",
    "icao": "VRMM",
    "name": "Male Velana International Airport",
    "city": "Male",
    "lat": "4.191833",
    "lon": "73.529121",
    "country": "MALDIVES"
}, {
    "iata": "BKO",
    "icao": "GABS",
    "name": "Bamako Senou International Airport",
    "city": "Bamako",
    "lat": "12.533540",
    "lon": "-7.949940",
    "country": "MALI"
}, {
    "iata": "MLA",
    "icao": "LMML",
    "name": "Malta Luqa International Airport",
    "city": "Malta",
    "lat": "35.857491",
    "lon": "14.477500",
    "country": "MALTA"
}, {
    "iata": "NKC",
    "icao": "GQNO",
    "name": "Nouakchott Oumtounsy International Airport",
    "city": "Nouakchott",
    "lat": "18.306103",
    "lon": "-15.964665",
    "country": "MAURITANIA"
}, {
    "iata": "MRU",
    "icao": "FIMP",
    "name": "Port Louis Sir Seewoosagur Ramgoolam Airport",
    "city": "Port Louis",
    "lat": "-20.430201",
    "lon": "57.683601",
    "country": "MAURITIUS"
}, {
    "iata": "MEX",
    "icao": "MMMX",
    "name": "Mexico City International Airport",
    "city": "Mexico City",
    "lat": "19.436300",
    "lon": "-99.071999",
    "country": "MEXICO"
}, {
    "iata": "RMO",
    "icao": "LUKK",
    "name": "Chisinau International Airport",
    "city": "Chisinau",
    "lat": "46.927738",
    "lon": "28.930969",
    "country": "MOLDOVA"
}, {
    "iata": "UBN",
    "icao": "ZMCK",
    "name": "Ulaanbaatar New International Airport",
    "city": "Ulaanbaatar",
    "lat": "47.646942",
    "lon": "106.819725",
    "country": "MONGOLIA"
}, {
    "iata": "TGD",
    "icao": "LYPG",
    "name": "Podgorica Airport",
    "city": "Podgorica",
    "lat": "42.359390",
    "lon": "19.251890",
    "country": "MONTENEGRO"
}, {
    "iata": "TIV",
    "icao": "LYTV",
    "name": "Tivat Airport",
    "city": "Tivat",
    "lat": "42.404659",
    "lon": "18.723280",
    "country": "MONTENEGRO"
}, {
    "iata": "CMN",
    "icao": "GMMN",
    "name": "Casablanca Mohammed V International Airport",
    "city": "Casablanca",
    "lat": "33.367458",
    "lon": "-7.589960",
    "country": "MOROCCO"
}, {
    "iata": "FEZ",
    "icao": "GMFF",
    "name": "Fes Saiss Airport",
    "city": "Fes",
    "lat": "33.927261",
    "lon": "-4.977950",
    "country": "MOROCCO"
}, {
    "iata": "RAK",
    "icao": "GMMX",
    "name": "Marrakesh Menara Airport",
    "city": "Marrakesh",
    "lat": "31.606880",
    "lon": "-8.036300",
    "country": "MOROCCO"
}, {
    "iata": "RBA",
    "icao": "GMME",
    "name": "Rabat-Sale Airport",
    "city": "Rabat",
    "lat": "34.051460",
    "lon": "-6.751510",
    "country": "MOROCCO"
}, {
    "iata": "TNG",
    "icao": "GMTT",
    "name": "Tangier Ibn Battouta Airport",
    "city": "Tangier",
    "lat": "35.726910",
    "lon": "-5.916880",
    "country": "MOROCCO"
}, {
    "iata": "KTM",
    "icao": "VNKT",
    "name": "Kathmandu Tribhuvan International Airport",
    "city": "Kathmandu",
    "lat": "27.696581",
    "lon": "85.359100",
    "country": "NEPAL"
}, {
    "iata": "AMS",
    "icao": "EHAM",
    "name": "Amsterdam Schiphol Airport",
    "city": "Amsterdam",
    "lat": "52.308609",
    "lon": "4.763889",
    "country": "NETHERLANDS"
}, {
    "iata": "MST",
    "icao": "EHBK",
    "name": "Maastricht Aachen Airport",
    "city": "Maastricht",
    "lat": "50.911652",
    "lon": "5.770144",
    "country": "NETHERLANDS"
}, {
    "iata": "NIM",
    "icao": "DRRN",
    "name": "Niamey Diori Hamani International Airport",
    "city": "Niamey",
    "lat": "13.481540",
    "lon": "2.183614",
    "country": "NIGER"
}, {
    "iata": "ABV",
    "icao": "DNAA",
    "name": "Abuja Nnamdi Azikiwe International Airport",
    "city": "Abuja",
    "lat": "9.006792",
    "lon": "7.263172",
    "country": "NIGERIA"
}, {
    "iata": "LOS",
    "icao": "DNMM",
    "name": "Lagos Murtala Mohammed Airport",
    "city": "Lagos",
    "lat": "6.577369",
    "lon": "3.321156",
    "country": "NIGERIA"
}, {
    "iata": "SKP",
    "icao": "LWSK",
    "name": "Skopje International Airport",
    "city": "Skopje",
    "lat": "41.961620",
    "lon": "21.621380",
    "country": "NORTH MACEDONIA"
}, {
    "iata": "OSL",
    "icao": "ENGM",
    "name": "Oslo Gardermoen Airport",
    "city": "Oslo",
    "lat": "60.193909",
    "lon": "11.100360",
    "country": "NORWAY"
}, {
    "iata": "MCT",
    "icao": "OOMS",
    "name": "Muscat International Airport",
    "city": "Muscat",
    "lat": "23.593269",
    "lon": "58.284439",
    "country": "OMAN"
}, {
    "iata": "ISB",
    "icao": "OPIS",
    "name": "Islamabad International Airport",
    "city": "Islamabad",
    "lat": "33.549084",
    "lon": "72.825653",
    "country": "PAKISTAN"
}, {
    "iata": "KHI",
    "icao": "OPKC",
    "name": "Karachi Jinnah International Airport",
    "city": "Karachi",
    "lat": "24.906540",
    "lon": "67.160789",
    "country": "PAKISTAN"
}, {
    "iata": "LHE",
    "icao": "OPLA",
    "name": "Lahore Allama Iqbal International Airport",
    "city": "Lahore",
    "lat": "31.521561",
    "lon": "74.403587",
    "country": "PAKISTAN"
}, {
    "iata": "PTY",
    "icao": "MPTO",
    "name": "Panama City Tocumen International Airport",
    "city": "Panama City",
    "lat": "9.071364",
    "lon": "-79.383400",
    "country": "PANAMA"
}, {
    "iata": "MNL",
    "icao": "RPLL",
    "name": "Manila Ninoy Aquino International Airport",
    "city": "Manila",
    "lat": "14.508640",
    "lon": "121.019501",
    "country": "PHILIPPINES"
}, {
    "iata": "KRK",
    "icao": "EPKK",
    "name": "Krakow John Paul II International Airport",
    "city": "Krakow",
    "lat": "50.077728",
    "lon": "19.784830",
    "country": "POLAND"
}, {
    "iata": "WAW",
    "icao": "EPWA",
    "name": "Warsaw Chopin Airport",
    "city": "Warsaw",
    "lat": "52.165749",
    "lon": "20.967119",
    "country": "POLAND"
}, {
    "iata": "LIS",
    "icao": "LPPT",
    "name": "Lisbon Humberto Delgado Airport",
    "city": "Lisbon",
    "lat": "38.781311",
    "lon": "-9.135910",
    "country": "PORTUGAL"
}, {
    "iata": "OPO",
    "icao": "LPPR",
    "name": "Porto Francisco de Sa Carneiro Airport",
    "city": "Porto",
    "lat": "41.248051",
    "lon": "-8.681380",
    "country": "PORTUGAL"
}, {
    "iata": "DOH",
    "icao": "OTHH",
    "name": "Doha Hamad International Airport",
    "city": "Doha",
    "lat": "25.272524",
    "lon": "51.608604",
    "country": "QATAR"
}, {
    "iata": "GHV",
    "icao": "LRBV",
    "name": "Brasov Airport",
    "city": "Brasov",
    "lat": "45.706043",
    "lon": "25.523390",
    "country": "ROMANIA"
}, {
    "iata": "OTP",
    "icao": "LROP",
    "name": "Bucharest Henri Coanda International Airport",
    "city": "Bucharest",
    "lat": "44.572159",
    "lon": "26.102171",
    "country": "ROMANIA"
}, {
    "iata": "CLJ",
    "icao": "LRCL",
    "name": "Cluj-Napoca International Airport",
    "city": "Cluj-Napoca",
    "lat": "46.785091",
    "lon": "23.686110",
    "country": "ROMANIA"
}, {
    "iata": "CND",
    "icao": "LRCK",
    "name": "Constanta International Airport",
    "city": "Constanta",
    "lat": "44.362221",
    "lon": "28.488331",
    "country": "ROMANIA"
}, {
    "iata": "IAS",
    "icao": "LRIA",
    "name": "Iasi International Airport",
    "city": "Iasi",
    "lat": "47.178490",
    "lon": "27.620630",
    "country": "ROMANIA"
}, {
    "iata": "GRV",
    "icao": "URMG",
    "name": "Grozny Airport",
    "city": "Grozny",
    "lat": "43.388199",
    "lon": "45.699684",
    "country": "RUSSIA"
}, {
    "iata": "KZN",
    "icao": "UWKD",
    "name": "Kazan International Airport",
    "city": "Kazan",
    "lat": "55.606178",
    "lon": "49.278721",
    "country": "RUSSIA"
}, {
    "iata": "MCX",
    "icao": "URML",
    "name": "Makhachkala Uytash Airport",
    "city": "Makhachkala",
    "lat": "42.816818",
    "lon": "47.652290",
    "country": "RUSSIA"
}, {
    "iata": "MRV",
    "icao": "URMM",
    "name": "Mineralnye Vody Airport",
    "city": "Mineralnye Vody",
    "lat": "44.225071",
    "lon": "43.081879",
    "country": "RUSSIA"
}, {
    "iata": "DME",
    "icao": "UUDD",
    "name": "Moscow Domodedovo International Airport",
    "city": "Moscow",
    "lat": "55.408779",
    "lon": "37.906311",
    "country": "RUSSIA"
}, {
    "iata": "SVO",
    "icao": "UUEE",
    "name": "Moscow Sheremetyevo International Airport",
    "city": "Moscow",
    "lat": "55.972641",
    "lon": "37.414581",
    "country": "RUSSIA"
}, {
    "iata": "VKO",
    "icao": "UUWW",
    "name": "Moscow Vnukovo International Airport",
    "city": "Moscow",
    "lat": "55.591530",
    "lon": "37.261478",
    "country": "RUSSIA"
}, {
    "iata": "GOJ",
    "icao": "UWGG",
    "name": "Nizhny Novgorod International Airport",
    "city": "Nizhny Novgorod",
    "lat": "56.230110",
    "lon": "43.784039",
    "country": "RUSSIA"
}, {
    "iata": "OVB",
    "icao": "UNNT",
    "name": "Novosibirsk Tolmachevo Airport",
    "city": "Novosibirsk",
    "lat": "55.012619",
    "lon": "82.650650",
    "country": "RUSSIA"
}, {
    "iata": "KUF",
    "icao": "UWWW",
    "name": "Samara Kurumoch International Airport",
    "city": "Samara",
    "lat": "53.504848",
    "lon": "50.164330",
    "country": "RUSSIA"
}, {
    "iata": "AER",
    "icao": "URSS",
    "name": "Sochi International Airport",
    "city": "Sochi",
    "lat": "43.449921",
    "lon": "39.956581",
    "country": "RUSSIA"
}, {
    "iata": "LED",
    "icao": "ULLI",
    "name": "St. Petersburg Pulkovo Airport",
    "city": "St. Petersburg",
    "lat": "59.800289",
    "lon": "30.262501",
    "country": "RUSSIA"
}, {
    "iata": "UFA",
    "icao": "UWUU",
    "name": "Ufa International Airport",
    "city": "Ufa",
    "lat": "54.557510",
    "lon": "55.874409",
    "country": "RUSSIA"
}, {
    "iata": "SVX",
    "icao": "USSS",
    "name": "Yekaterinburg Koltsovo International Airport",
    "city": "Yekaterinburg",
    "lat": "56.743099",
    "lon": "60.802719",
    "country": "RUSSIA"
}, {
    "iata": "KGL",
    "icao": "HRYR",
    "name": "Kigali Airport",
    "city": "Kigali",
    "lat": "-1.968620",
    "lon": "30.139450",
    "country": "RWANDA"
}, {
    "iata": "DMM",
    "icao": "OEDF",
    "name": "Dammam King Fahd International Airport",
    "city": "Dammam",
    "lat": "26.471161",
    "lon": "49.797890",
    "country": "SAUDI ARABIA"
}, {
    "iata": "JED",
    "icao": "OEJN",
    "name": "Jeddah King Abdulaziz International Airport",
    "city": "Jeddah",
    "lat": "21.679560",
    "lon": "39.156528",
    "country": "SAUDI ARABIA"
}, {
    "iata": "MED",
    "icao": "OEMA",
    "name": "Medina Prince Mohammad bin Abdulaziz Airport",
    "city": "Medina",
    "lat": "24.553419",
    "lon": "39.705059",
    "country": "SAUDI ARABIA"
}, {
    "iata": "NUM",
    "icao": "OENN",
    "name": "Neom Bay Airport",
    "city": "Neom",
    "lat": "27.917212",
    "lon": "35.294044",
    "country": "SAUDI ARABIA"
}, {
    "iata": "RUH",
    "icao": "OERK",
    "name": "Riyadh King Khalid International Airport",
    "city": "Riyadh",
    "lat": "24.957640",
    "lon": "46.698769",
    "country": "SAUDI ARABIA"
}, {
    "iata": "TIF",
    "icao": "OETF",
    "name": "Taif Airport",
    "city": "Taif",
    "lat": "21.483410",
    "lon": "40.544331",
    "country": "SAUDI ARABIA"
}, {
    "iata": "DSS",
    "icao": "GOBD",
    "name": "Dakar Blaise Diagne International Airport",
    "city": "Dakar",
    "lat": "14.671111",
    "lon": "-17.066944",
    "country": "SENEGAL"
}, {
    "iata": "BEG",
    "icao": "LYBE",
    "name": "Belgrade Nikola Tesla Airport",
    "city": "Belgrade",
    "lat": "44.818439",
    "lon": "20.309130",
    "country": "SERBIA"
}, {
    "iata": "KVO",
    "icao": "LYKV",
    "name": "Kraljevo Morava Airport",
    "city": "Kraljevo",
    "lat": "43.818611",
    "lon": "20.585278",
    "country": "SERBIA"
}, {
    "iata": "INI",
    "icao": "LYNI",
    "name": "Nis Constantine the Great Airport",
    "city": "Nis",
    "lat": "43.337280",
    "lon": "21.853720",
    "country": "SERBIA"
}, {
    "iata": "SIN",
    "icao": "WSSS",
    "name": "Singapore Changi Airport",
    "city": "Singapore",
    "lat": "1.350189",
    "lon": "103.994400",
    "country": "SINGAPORE"
}, {
    "iata": "LJU",
    "icao": "LJLJ",
    "name": "Ljubljana Joze Pucnik Airport",
    "city": "Ljubljana",
    "lat": "46.223679",
    "lon": "14.457610",
    "country": "SLOVENIA"
}, {
    "iata": "MGQ",
    "icao": "HCMM",
    "name": "Mogadishu Aden Adde International Airport",
    "city": "Mogadishu",
    "lat": "2.014444",
    "lon": "45.304722",
    "country": "SOMALIA"
}, {
    "iata": "CPT",
    "icao": "FACT",
    "name": "Cape Town International Airport",
    "city": "Cape Town",
    "lat": "-33.964802",
    "lon": "18.601660",
    "country": "SOUTH AFRICA"
}, {
    "iata": "JNB",
    "icao": "FAOR",
    "name": "Johannesburg OR Tambo International Airport",
    "city": "Johannesburg",
    "lat": "-26.139099",
    "lon": "28.246000",
    "country": "SOUTH AFRICA"
}, {
    "iata": "ICN",
    "icao": "RKSI",
    "name": "Seoul Incheon International Airport",
    "city": "Seoul",
    "lat": "37.469070",
    "lon": "126.450500",
    "country": "SOUTH KOREA"
}, {
    "iata": "JUB",
    "icao": "HJJJ",
    "name": "Juba International Airport",
    "city": "Juba",
    "lat": "4.872006",
    "lon": "31.601110",
    "country": "SOUTH SUDAN"
}, {
    "iata": "BCN",
    "icao": "LEBL",
    "name": "Barcelona El Prat Airport",
    "city": "Barcelona",
    "lat": "41.297070",
    "lon": "2.078463",
    "country": "SPAIN"
}, {
    "iata": "BIO",
    "icao": "LEBB",
    "name": "Bilbao Airport",
    "city": "Bilbao",
    "lat": "43.301090",
    "lon": "-2.910600",
    "country": "SPAIN"
}, {
    "iata": "MAD",
    "icao": "LEMD",
    "name": "Madrid Barajas Airport",
    "city": "Madrid",
    "lat": "40.488701",
    "lon": "-3.570000",
    "country": "SPAIN"
}, {
    "iata": "AGP",
    "icao": "LEMG",
    "name": "Malaga Costa Del Sol Airport",
    "city": "Malaga",
    "lat": "36.679596",
    "lon": "-4.496117",
    "country": "SPAIN"
}, {
    "iata": "VLC",
    "icao": "LEVC",
    "name": "Valencia Airport",
    "city": "Valencia",
    "lat": "39.489311",
    "lon": "-0.481620",
    "country": "SPAIN"
}, {
    "iata": "ZAZ",
    "icao": "LEZG",
    "name": "Zaragoza Airport",
    "city": "Zaragoza",
    "lat": "41.666241",
    "lon": "-1.041550",
    "country": "SPAIN"
}, {
    "iata": "CMB",
    "icao": "VCBI",
    "name": "Colombo Bandaranaike International Airport",
    "city": "Colombo",
    "lat": "7.181139",
    "lon": "79.883789",
    "country": "SRI LANKA"
}, {
    "iata": "PZU",
    "icao": "HSPN",
    "name": "Port Sudan New International Airport",
    "city": "Port Sudan",
    "lat": "19.433630",
    "lon": "37.234070",
    "country": "SUDAN"
}, {
    "iata": "GOT",
    "icao": "ESGG",
    "name": "Gothenburg Landvetter Airport",
    "city": "Gothenburg",
    "lat": "57.665951",
    "lon": "12.282685",
    "country": "SWEDEN"
}, {
    "iata": "ARN",
    "icao": "ESSA",
    "name": "Stockholm Arlanda Airport",
    "city": "Stockholm",
    "lat": "59.653545",
    "lon": "17.939816",
    "country": "SWEDEN"
}, {
    "iata": "GVA",
    "icao": "LSGG",
    "name": "Geneva International Airport",
    "city": "Geneva",
    "lat": "46.238060",
    "lon": "6.108950",
    "country": "SWITZERLAND"
}, {
    "iata": "ZRH",
    "icao": "LSZH",
    "name": "Zurich Airport",
    "city": "Zurich",
    "lat": "47.464722",
    "lon": "8.549167",
    "country": "SWITZERLAND"
}, {
    "iata": "TPE",
    "icao": "RCTP",
    "name": "Taipei Taoyuan International Airport",
    "city": "Taipei",
    "lat": "25.077730",
    "lon": "121.232803",
    "country": "TAIWAN"
}, {
    "iata": "DYU",
    "icao": "UTDD",
    "name": "Dushanbe International Airport",
    "city": "Dushanbe",
    "lat": "38.543331",
    "lon": "68.824997",
    "country": "TAJIKISTAN"
}, {
    "iata": "DAR",
    "icao": "HTDA",
    "name": "Dar-es-Salaam Julius Nyerere International Airport",
    "city": "Dar-es-Salaam",
    "lat": "-6.878110",
    "lon": "39.202621",
    "country": "TANZANIA"
}, {
    "iata": "JRO",
    "icao": "HTKJ",
    "name": "Kilimanjaro International Airport",
    "city": "Kilimanjaro",
    "lat": "-3.429400",
    "lon": "37.074459",
    "country": "TANZANIA"
}, {
    "iata": "ZNZ",
    "icao": "HTZA",
    "name": "Zanzibar Abeid Amani Karume International Airport",
    "city": "Zanzibar",
    "lat": "-6.222020",
    "lon": "39.224880",
    "country": "TANZANIA"
}, {
    "iata": "BKK",
    "icao": "VTBS",
    "name": "Bangkok Suvarnabhumi Airport",
    "city": "Bangkok",
    "lat": "13.681100",
    "lon": "100.747200",
    "country": "THAILAND"
}, {
    "iata": "HKT",
    "icao": "VTSP",
    "name": "Phuket International Airport",
    "city": "Phuket",
    "lat": "8.113200",
    "lon": "98.316872",
    "country": "THAILAND"
}, {
    "iata": "TUN",
    "icao": "DTTA",
    "name": "Tunis Carthage International Airport",
    "city": "Tunis",
    "lat": "36.851028",
    "lon": "10.227210",
    "country": "TUNISIA"
}, {
    "iata": "ADF",
    "icao": "LTCP",
    "name": "Adiyaman Airport",
    "city": "Adiyaman",
    "lat": "37.731361",
    "lon": "38.468929",
    "country": "TURKEY"
}, {
    "iata": "AJI",
    "icao": "LTCO",
    "name": "Agri Airport",
    "city": "Agri",
    "lat": "39.654560",
    "lon": "43.027149",
    "country": "TURKEY"
}, {
    "iata": "ESB",
    "icao": "LTAC",
    "name": "Ankara Esenboga International Airport",
    "city": "Ankara",
    "lat": "40.128078",
    "lon": "32.995079",
    "country": "TURKEY"
}, {
    "iata": "HTY",
    "icao": "LTDA",
    "name": "Antakya Hatay Airport",
    "city": "Antakya",
    "lat": "36.362778",
    "lon": "36.282223",
    "country": "TURKEY"
}, {
    "iata": "AYT",
    "icao": "LTAI",
    "name": "Antalya Airport",
    "city": "Antalya",
    "lat": "36.898731",
    "lon": "30.800461",
    "country": "TURKEY"
}, {
    "iata": "BAL",
    "icao": "LTCJ",
    "name": "Batman Airport",
    "city": "Batman",
    "lat": "37.928959",
    "lon": "41.116581",
    "country": "TURKEY"
}, {
    "iata": "BGG",
    "icao": "LTCU",
    "name": "Bingol Airport",
    "city": "Bingol",
    "lat": "38.861111",
    "lon": "40.592499",
    "country": "TURKEY"
}, {
    "iata": "BJV",
    "icao": "LTFE",
    "name": "Bodrum Milas Airport",
    "city": "Bodrum",
    "lat": "37.250610",
    "lon": "27.664310",
    "country": "TURKEY"
}, {
    "iata": "DLM",
    "icao": "LTBS",
    "name": "Dalaman Airport",
    "city": "Dalaman",
    "lat": "36.713051",
    "lon": "28.792500",
    "country": "TURKEY"
}, {
    "iata": "DNZ",
    "icao": "LTAY",
    "name": "Denizli Cardak Airport",
    "city": "Cardak",
    "lat": "37.785561",
    "lon": "29.701290",
    "country": "TURKEY"
}, {
    "iata": "DIY",
    "icao": "LTCC",
    "name": "Diyarbakir Airport",
    "city": "Diyarbakir",
    "lat": "37.893890",
    "lon": "40.201012",
    "country": "TURKEY"
}, {
    "iata": "EDO",
    "icao": "LTFD",
    "name": "Edremit Balikesir Koca Seyit Airport",
    "city": "Edremit",
    "lat": "39.549999",
    "lon": "27.010000",
    "country": "TURKEY"
}, {
    "iata": "EZS",
    "icao": "LTCA",
    "name": "Elazig Airport",
    "city": "Elazig",
    "lat": "38.606918",
    "lon": "39.291409",
    "country": "TURKEY"
}, {
    "iata": "ECN",
    "icao": "LCEN",
    "name": "Ercan International Airport",
    "city": "Ercan",
    "lat": "35.155071",
    "lon": "33.502117",
    "country": "TURKEY"
}, {
    "iata": "ERC",
    "icao": "LTCD",
    "name": "Erzincan Airport",
    "city": "Erzincan",
    "lat": "39.710201",
    "lon": "39.527000",
    "country": "TURKEY"
}, {
    "iata": "ERZ",
    "icao": "LTCE",
    "name": "Erzurum Airport",
    "city": "Erzurum",
    "lat": "39.956501",
    "lon": "41.170158",
    "country": "TURKEY"
}, {
    "iata": "GZT",
    "icao": "LTAJ",
    "name": "Gaziantep Oguzeli Airport",
    "city": "Gaziantep",
    "lat": "36.947182",
    "lon": "37.478680",
    "country": "TURKEY"
}, {
    "iata": "GZP",
    "icao": "LTFG",
    "name": "Gazipasa Airport",
    "city": "Gazipasa",
    "lat": "36.299000",
    "lon": "32.299999",
    "country": "TURKEY"
}, {
    "iata": "IGD",
    "icao": "LTCT",
    "name": "Igdir Airport",
    "city": "Igdir",
    "lat": "39.983055",
    "lon": "43.866390",
    "country": "TURKEY"
}, {
    "iata": "ISE",
    "icao": "LTFC",
    "name": "Isparta Suleyman Demirel Airport",
    "city": "Isparta",
    "lat": "37.866112",
    "lon": "30.382221",
    "country": "TURKEY"
}, {
    "iata": "IST",
    "icao": "LTFM",
    "name": "Istanbul Airport",
    "city": "Istanbul",
    "lat": "41.267052",
    "lon": "28.729757",
    "country": "TURKEY"
}, {
    "iata": "ISL",
    "icao": "LTBA",
    "name": "Istanbul Ataturk Airport",
    "city": "Istanbul",
    "lat": "40.976921",
    "lon": "28.814600",
    "country": "TURKEY"
}, {
    "iata": "SAW",
    "icao": "LTFJ",
    "name": "Istanbul Sabiha Gokcen International Airport",
    "city": "Istanbul",
    "lat": "40.898548",
    "lon": "29.309210",
    "country": "TURKEY"
}, {
    "iata": "ADB",
    "icao": "LTBJ",
    "name": "Izmir Adnan Menderes International Airport",
    "city": "Izmir",
    "lat": "38.292389",
    "lon": "27.156950",
    "country": "TURKEY"
}, {
    "iata": "KCM",
    "icao": "LTCN",
    "name": "Kahramanmaras Airport",
    "city": "Kahramanmaras",
    "lat": "37.534401",
    "lon": "36.950500",
    "country": "TURKEY"
}, {
    "iata": "KSY",
    "icao": "LTCF",
    "name": "Kars Harakani Airport",
    "city": "Kars",
    "lat": "40.562222",
    "lon": "43.115002",
    "country": "TURKEY"
}, {
    "iata": "KFS",
    "icao": "LTAL",
    "name": "Kastamonu Airport",
    "city": "Kastamonu",
    "lat": "41.314167",
    "lon": "33.795555",
    "country": "TURKEY"
}, {
    "iata": "ASR",
    "icao": "LTAU",
    "name": "Kayseri Erkilet International Airport",
    "city": "Kayseri",
    "lat": "38.770378",
    "lon": "35.495419",
    "country": "TURKEY"
}, {
    "iata": "KYA",
    "icao": "LTAN",
    "name": "Konya Airport",
    "city": "Konya",
    "lat": "37.979000",
    "lon": "32.561859",
    "country": "TURKEY"
}, {
    "iata": "KZR",
    "icao": "LTBZ",
    "name": "Kutahya Zafer Airport",
    "city": "Kutahya",
    "lat": "39.111389",
    "lon": "30.129999",
    "country": "TURKEY"
}, {
    "iata": "MLX",
    "icao": "LTAT",
    "name": "Malatya Erhac Airport",
    "city": "Malatya",
    "lat": "38.435341",
    "lon": "38.091000",
    "country": "TURKEY"
}, {
    "iata": "MQM",
    "icao": "LTCR",
    "name": "Mardin Airport",
    "city": "Mardin",
    "lat": "37.223331",
    "lon": "40.631660",
    "country": "TURKEY"
}, {
    "iata": "COV",
    "icao": "LTDB",
    "name": "Mersin Cukurova International Airport",
    "city": "Mersin",
    "lat": "36.892776",
    "lon": "35.072136",
    "country": "TURKEY"
}, {
    "iata": "MZH",
    "icao": "LTAP",
    "name": "Merzifon Airport",
    "city": "Merzifon",
    "lat": "40.829369",
    "lon": "35.521992",
    "country": "TURKEY"
}, {
    "iata": "MSR",
    "icao": "LTCK",
    "name": "Mus Airport",
    "city": "Mus",
    "lat": "38.747761",
    "lon": "41.661228",
    "country": "TURKEY"
}, {
    "iata": "NAV",
    "icao": "LTAZ",
    "name": "Nevsehir Kapadokya Airport",
    "city": "Nevsehir",
    "lat": "38.772236",
    "lon": "34.533512",
    "country": "TURKEY"
}, {
    "iata": "RZV",
    "icao": "LTFO",
    "name": "Rize Artvin Airport",
    "city": "Rize",
    "lat": "41.180119",
    "lon": "40.849251",
    "country": "TURKEY"
}, {
    "iata": "SZF",
    "icao": "LTFH",
    "name": "Samsun Carsamba Airport",
    "city": "Samsun",
    "lat": "41.254478",
    "lon": "36.567101",
    "country": "TURKEY"
}, {
    "iata": "GNY",
    "icao": "LTCS",
    "name": "Sanliurfa GAP Airport",
    "city": "Sanliurfa",
    "lat": "37.450001",
    "lon": "38.900002",
    "country": "TURKEY"
}, {
    "iata": "SXZ",
    "icao": "LTCL",
    "name": "Siirt Airport",
    "city": "Siirt",
    "lat": "37.978901",
    "lon": "41.840401",
    "country": "TURKEY"
}, {
    "iata": "NOP",
    "icao": "LTCM",
    "name": "Sinop Airport",
    "city": "Sinop",
    "lat": "42.019001",
    "lon": "35.079189",
    "country": "TURKEY"
}, {
    "iata": "NKT",
    "icao": "LTCV",
    "name": "Sirnak Airport",
    "city": "Sirnak",
    "lat": "37.363888",
    "lon": "42.060001",
    "country": "TURKEY"
}, {
    "iata": "VAS",
    "icao": "LTAR",
    "name": "Sivas Nuri Demirag Airport",
    "city": "Sivas",
    "lat": "39.813820",
    "lon": "36.903488",
    "country": "TURKEY"
}, {
    "iata": "TJK",
    "icao": "LTAW",
    "name": "Tokat Airport",
    "city": "Tokat",
    "lat": "40.321861",
    "lon": "36.379726",
    "country": "TURKEY"
}, {
    "iata": "TZX",
    "icao": "LTCG",
    "name": "Trabzon Airport",
    "city": "Trabzon",
    "lat": "40.995098",
    "lon": "39.789719",
    "country": "TURKEY"
}, {
    "iata": "VAN",
    "icao": "LTCI",
    "name": "Van Airport",
    "city": "Van",
    "lat": "38.468208",
    "lon": "43.332298",
    "country": "TURKEY"
}, {
    "iata": "YKO",
    "icao": "LTCW",
    "name": "Yuksekova Hakkari Airport",
    "city": "Yuksekova",
    "lat": "37.545242",
    "lon": "44.255165",
    "country": "TURKEY"
}, {
    "iata": "ONQ",
    "icao": "LTAS",
    "name": "Zonguldak Airport",
    "city": "Zonguldak",
    "lat": "41.508461",
    "lon": "32.090023",
    "country": "TURKEY"
}, {
    "iata": "ASB",
    "icao": "UTAA",
    "name": "Ashgabat International Airport",
    "city": "Ashgabat",
    "lat": "37.986809",
    "lon": "58.360958",
    "country": "TURKMENISTAN"
}, {
    "iata": "AUH",
    "icao": "OMAA",
    "name": "Abu Dhabi Zayed International Airport",
    "city": "Abu Dhabi",
    "lat": "24.442856",
    "lon": "54.651474",
    "country": "UNITED ARAB EMIRATES"
}, {
    "iata": "DXB",
    "icao": "OMDB",
    "name": "Dubai International Airport",
    "city": "Dubai",
    "lat": "25.252769",
    "lon": "55.364441",
    "country": "UNITED ARAB EMIRATES"
}, {
    "iata": "DWC",
    "icao": "OMDW",
    "name": "Dubai World Central International Airport",
    "city": "Dubai",
    "lat": "24.886110",
    "lon": "55.172222",
    "country": "UNITED ARAB EMIRATES"
}, {
    "iata": "SHJ",
    "icao": "OMSJ",
    "name": "Sharjah International Airport",
    "city": "Sharjah",
    "lat": "25.328569",
    "lon": "55.517151",
    "country": "UNITED ARAB EMIRATES"
}, {
    "iata": "BHX",
    "icao": "EGBB",
    "name": "Birmingham Airport",
    "city": "Birmingham",
    "lat": "52.453850",
    "lon": "-1.748020",
    "country": "UNITED KINGDOM"
}, {
    "iata": "EDI",
    "icao": "EGPH",
    "name": "Edinburgh Airport",
    "city": "Edinburgh",
    "lat": "55.950001",
    "lon": "-3.372500",
    "country": "UNITED KINGDOM"
}, {
    "iata": "LGW",
    "icao": "EGKK",
    "name": "London Gatwick Airport",
    "city": "London",
    "lat": "51.148048",
    "lon": "-0.190270",
    "country": "UNITED KINGDOM"
}, {
    "iata": "LHR",
    "icao": "EGLL",
    "name": "London Heathrow Airport",
    "city": "London",
    "lat": "51.471626",
    "lon": "-0.467081",
    "country": "UNITED KINGDOM"
}, {
    "iata": "LTN",
    "icao": "EGGW",
    "name": "London Luton Airport",
    "city": "London",
    "lat": "51.874722",
    "lon": "-0.368330",
    "country": "UNITED KINGDOM"
}, {
    "iata": "STN",
    "icao": "EGSS",
    "name": "London Stansted Airport",
    "city": "London",
    "lat": "51.884998",
    "lon": "0.235000",
    "country": "UNITED KINGDOM"
}, {
    "iata": "MAN",
    "icao": "EGCC",
    "name": "Manchester Airport",
    "city": "Manchester",
    "lat": "53.353741",
    "lon": "-2.274950",
    "country": "UNITED KINGDOM"
}, {
    "iata": "EMA",
    "icao": "EGNX",
    "name": "Nottingham East Midlands Airport",
    "city": "Nottingham",
    "lat": "52.831108",
    "lon": "-1.328050",
    "country": "UNITED KINGDOM"
}, {
    "iata": "ATL",
    "icao": "KATL",
    "name": "Atlanta Hartsfield-Jackson International Airport",
    "city": "Atlanta",
    "lat": "33.636719",
    "lon": "-84.428001",
    "country": "UNITED STATES"
}, {
    "iata": "BOS",
    "icao": "KBOS",
    "name": "Boston Logan International Airport",
    "city": "Boston",
    "lat": "42.362968",
    "lon": "-71.006401",
    "country": "UNITED STATES"
}, {
    "iata": "ORD",
    "icao": "KORD",
    "name": "Chicago O'Hare International Airport",
    "city": "Chicago",
    "lat": "41.978142",
    "lon": "-87.905800",
    "country": "UNITED STATES"
}, {
    "iata": "LCK",
    "icao": "KLCK",
    "name": "Columbus Rickenbacker International Airport",
    "city": "Columbus",
    "lat": "39.813782",
    "lon": "-82.927803",
    "country": "UNITED STATES"
}, {
    "iata": "DFW",
    "icao": "KDFW",
    "name": "Dallas Fort Worth International Airport",
    "city": "Dallas",
    "lat": "32.896820",
    "lon": "-97.037903",
    "country": "UNITED STATES"
}, {
    "iata": "DEN",
    "icao": "KDEN",
    "name": "Denver International Airport",
    "city": "Denver",
    "lat": "39.858784",
    "lon": "-104.673882",
    "country": "UNITED STATES"
}, {
    "iata": "DTW",
    "icao": "KDTW",
    "name": "Detroit Metropolitan Wayne County Airport",
    "city": "Detroit",
    "lat": "42.212440",
    "lon": "-83.353302",
    "country": "UNITED STATES"
}, {
    "iata": "IAH",
    "icao": "KIAH",
    "name": "Houston George Bush Intercontinental Airport",
    "city": "Houston",
    "lat": "29.984430",
    "lon": "-95.341400",
    "country": "UNITED STATES"
}, {
    "iata": "LAX",
    "icao": "KLAX",
    "name": "Los Angeles International Airport",
    "city": "Los Angeles",
    "lat": "33.942520",
    "lon": "-118.406998",
    "country": "UNITED STATES"
}, {
    "iata": "MIA",
    "icao": "KMIA",
    "name": "Miami International Airport",
    "city": "Miami",
    "lat": "25.793249",
    "lon": "-80.290497",
    "country": "UNITED STATES"
}, {
    "iata": "JFK",
    "icao": "KJFK",
    "name": "New York John F. Kennedy International Airport",
    "city": "New York",
    "lat": "40.639751",
    "lon": "-73.778900",
    "country": "UNITED STATES"
}, {
    "iata": "EWR",
    "icao": "KEWR",
    "name": "New York Newark Liberty International Airport",
    "city": "New York",
    "lat": "40.692501",
    "lon": "-74.168602",
    "country": "UNITED STATES"
}, {
    "iata": "SFO",
    "icao": "KSFO",
    "name": "San Francisco International Airport",
    "city": "San Francisco",
    "lat": "37.618969",
    "lon": "-122.374001",
    "country": "UNITED STATES"
}, {
    "iata": "SEA",
    "icao": "KSEA",
    "name": "Seattle Tacoma International Airport",
    "city": "Seattle",
    "lat": "47.448200",
    "lon": "-122.311203",
    "country": "UNITED STATES"
}, {
    "iata": "IAD",
    "icao": "KIAD",
    "name": "Washington Dulles International Airport",
    "city": "Washington",
    "lat": "38.947441",
    "lon": "-77.459900",
    "country": "UNITED STATES"
}, {
    "iata": "BHK",
    "icao": "UTSB",
    "name": "Bukhara International Airport",
    "city": "Bukhara",
    "lat": "39.775002",
    "lon": "64.483330",
    "country": "UZBEKISTAN"
}, {
    "iata": "FEG",
    "icao": "UTFF",
    "name": "Fergana International Airport",
    "city": "Fergana",
    "lat": "40.358761",
    "lon": "71.745018",
    "country": "UZBEKISTAN"
}, {
    "iata": "NMA",
    "icao": "UTFN",
    "name": "Namangan Airport",
    "city": "Namangan",
    "lat": "40.984570",
    "lon": "71.556740",
    "country": "UZBEKISTAN"
}, {
    "iata": "NVI",
    "icao": "UTSA",
    "name": "Navoi International Airport",
    "city": "Navoiy",
    "lat": "40.117771",
    "lon": "65.175003",
    "country": "UZBEKISTAN"
}, {
    "iata": "NCU",
    "icao": "UTNN",
    "name": "Nukus Airport",
    "city": "Nukus",
    "lat": "42.488411",
    "lon": "59.623249",
    "country": "UZBEKISTAN"
}, {
    "iata": "SKD",
    "icao": "UTSS",
    "name": "Samarkand International Airport",
    "city": "Samarkand",
    "lat": "39.700539",
    "lon": "66.983818",
    "country": "UZBEKISTAN"
}, {
    "iata": "TAS",
    "icao": "UTTT",
    "name": "Tashkent International Airport",
    "city": "Tashkent",
    "lat": "41.257858",
    "lon": "69.281181",
    "country": "UZBEKISTAN"
}, {
    "iata": "UGC",
    "icao": "UTNU",
    "name": "Urgench International Airport",
    "city": "Urgench",
    "lat": "41.584835",
    "lon": "60.633030",
    "country": "UZBEKISTAN"
}, {
    "iata": "CCS",
    "icao": "SVMI",
    "name": "Caracas Simon Bolivar International Airport",
    "city": "Caracas",
    "lat": "10.603110",
    "lon": "-66.990501",
    "country": "VENEZUELA"
}, {
    "iata": "HAN",
    "icao": "VVNB",
    "name": "Hanoi Noi Bai International Airport",
    "city": "Hanoi",
    "lat": "21.221189",
    "lon": "105.807098",
    "country": "VIETNAM"
}, {
    "iata": "SGN",
    "icao": "VVTS",
    "name": "Ho Chi Minh City International Airport",
    "city": "Ho Chi Minh City",
    "lat": "10.818790",
    "lon": "106.651802",
    "country": "VIETNAM"
}]