[{
    "iata": "GYD",
    "icao": "UBBB",
    "name": "Baku Heydar Aliyev International Airport",
    "city": "Baku",
    "lat": "40.467499",
    "lon": "50.046661",
    "country": "AZERBAIJAN"
}, {
    "iata": "BAH",
    "icao": "OBBI",
    "name": "Bahrain International Airport",
    "city": "Bahrain",
    "lat": "26.270830",
    "lon": "50.633610",
    "country": "BAHRAIN"
}, {
    "iata": "DUS",
    "icao": "EDDL",
    "name": "Dusseldorf International Airport",
    "city": "Dusseldorf",
    "lat": "51.289452",
    "lon": "6.766775",
    "country": "GERMANY"
}, {
    "iata": "FRA",
    "icao": "EDDF",
    "name": "Frankfurt Airport",
    "city": "Frankfurt",
    "lat": "50.037796",
    "lon": "8.555783",
    "country": "GERMANY"
}, {
    "iata": "MUC",
    "icao": "EDDM",
    "name": "Munich Airport",
    "city": "Munich",
    "lat": "48.353779",
    "lon": "11.786080",
    "country": "GERMANY"
}, {
    "iata": "STR",
    "icao": "EDDS",
    "name": "Stuttgart Airport",
    "city": "Stuttgart",
    "lat": "48.689869",
    "lon": "9.221964",
    "country": "GERMANY"
}, {
    "iata": "BGW",
    "icao": "ORBI",
    "name": "Baghdad International Airport",
    "city": "Baghdad",
    "lat": "33.262501",
    "lon": "44.234444",
    "country": "IRAQ"
}, {
    "iata": "EBL",
    "icao": "ORER",
    "name": "Erbil International Airport",
    "city": "Erbil",
    "lat": "36.240482",
    "lon": "43.946671",
    "country": "IRAQ"
}, {
    "iata": "AMM",
    "icao": "OJAI",
    "name": "Amman Queen Alia International Airport",
    "city": "Amman",
    "lat": "31.722549",
    "lon": "35.993210",
    "country": "JORDAN"
}, {
    "iata": "KWI",
    "icao": "OKKK",
    "name": "Kuwait International Airport",
    "city": "Kuwait City",
    "lat": "29.226561",
    "lon": "47.968922",
    "country": "KUWAIT"
}, {
    "iata": "JED",
    "icao": "OEJN",
    "name": "Jeddah King Abdulaziz International Airport",
    "city": "Jeddah",
    "lat": "21.679560",
    "lon": "39.156528",
    "country": "SAUDI ARABIA"
}, {
    "iata": "RUH",
    "icao": "OERK",
    "name": "Riyadh King Khalid International Airport",
    "city": "Riyadh",
    "lat": "24.957640",
    "lon": "46.698769",
    "country": "SAUDI ARABIA"
}, {
    "iata": "ESB",
    "icao": "LTAC",
    "name": "Ankara Esenboga International Airport",
    "city": "Ankara",
    "lat": "40.128078",
    "lon": "32.995079",
    "country": "TURKEY"
}, {
    "iata": "AYT",
    "icao": "LTAI",
    "name": "Antalya Airport",
    "city": "Antalya",
    "lat": "36.898731",
    "lon": "30.800461",
    "country": "TURKEY"
}, {
    "iata": "YEI",
    "icao": "LTBR",
    "name": "Bursa Yenisehir Airport",
    "city": "Bursa",
    "lat": "40.255001",
    "lon": "29.562500",
    "country": "TURKEY"
}, {
    "iata": "DIY",
    "icao": "LTCC",
    "name": "Diyarbakir Airport",
    "city": "Diyarbakir",
    "lat": "37.893890",
    "lon": "40.201012",
    "country": "TURKEY"
}, {
    "iata": "GZT",
    "icao": "LTAJ",
    "name": "Gaziantep Oguzeli Airport",
    "city": "Gaziantep",
    "lat": "36.947182",
    "lon": "37.478680",
    "country": "TURKEY"
}, {
    "iata": "IST",
    "icao": "LTFM",
    "name": "Istanbul Airport",
    "city": "Istanbul",
    "lat": "41.267052",
    "lon": "28.729757",
    "country": "TURKEY"
}, {
    "iata": "SAW",
    "icao": "LTFJ",
    "name": "Istanbul Sabiha Gokcen International Airport",
    "city": "Istanbul",
    "lat": "40.898548",
    "lon": "29.309210",
    "country": "TURKEY"
}, {
    "iata": "ADB",
    "icao": "LTBJ",
    "name": "Izmir Adnan Menderes International Airport",
    "city": "Izmir",
    "lat": "38.292389",
    "lon": "27.156950",
    "country": "TURKEY"
}, {
    "iata": "COV",
    "icao": "LTDB",
    "name": "Mersin Cukurova International Airport",
    "city": "Mersin",
    "lat": "36.892776",
    "lon": "35.072136",
    "country": "TURKEY"
}, {
    "iata": "SHJ",
    "icao": "OMSJ",
    "name": "Sharjah International Airport",
    "city": "Sharjah",
    "lat": "25.328569",
    "lon": "55.517151",
    "country": "UNITED ARAB EMIRATES"
}]